name,Borough,BUILDING,STREET,ZIPCODE,PHONE,cuisine_description,latitude,longitude,is_vegan,is_vegetarian,is_kids_friendly,ticket_price,Information
BILL'S NEW YORK CITY,Manhattan,57,EAST   54 STREET,10022,2125182727,American,40.76009669,-73.9731292,1,1,0,23.16,The cuisine is American
TGA NYC,Manhattan,320,WEST   36 STREET,10018,2126514842,American,40.75381689,-73.99336234,1,1,0,19.06,The cuisine is American
DUNKIN,Bronx,1090,MORRIS PARK AVENUE,10461,7189750433,Donuts,40.84939717,-73.85334877,0,0,1,48.15,The cuisine is Donuts
EL ENCANTO CENTRO-AMERICANO RESTAURANT,Queens,14912,JAMAICA AVENUE,11435,7182629799,Latin American,40.7019266,-73.80525983,0,1,0,42.04,The cuisine is Latin American
TAQUERIA EL PUENTE,Brooklyn,9300,5 AVENUE,11209,7189212580,Mexican,40.6167226,-74.03031395,0,1,1,36.04,The cuisine is Mexican
BUBBA'S BISTRO,Queens,3113,DITMARS BLVD,11105,7187282227,Creole/Cajun,40.77575919,-73.91015437,1,1,0,32.08,The cuisine is Creole/Cajun
EL COYOTE,Queens,70-09,AUSTIN STREET,11375,7182680777,Mexican,40.72082674,-73.84660157,1,1,0,11.97,The cuisine is Mexican
ANIL'S ROTI SHOP,Queens,12501,LIBERTY AVENUE,11419,7188452800,Caribbean,40.68815695,-73.81922229,0,0,1,24.91,The cuisine is Caribbean
HOLLAND BAY RESTAURANT,Staten Island,78,VICTORY BOULEVARD,10301,6466234475,Caribbean,40.63794645,-74.07942298,1,1,1,23.17,The cuisine is Caribbean
HE JI NOODLE HOUSE,Queens,133-35,ROOSEVELT AVENUE,11354,6316625587,Chinese,40.758502,-73.83324181,0,0,0,20.31,The cuisine is Chinese
TOM'S RESTAURANT,Manhattan,2880,BROADWAY,10025,2128646137,American,40.80549019,-73.96572025,1,1,0,21.69,The cuisine is American
LUKE'S LOBSTER,Brooklyn,11,WATER STREET,11201,3475692681,Seafood,40.70322815,-73.99407069,0,0,0,20.8,The cuisine is Seafood
KRUSH,Manhattan,2,WEST   32 STREET,10001,9178649456,American,40.74730839,-73.98590313,0,0,0,32.19,The cuisine is American
FRAME GOURMET EATERY,Manhattan,424,WEST   33 STREET,10001,2122733730,American,40.75309244,-73.99770446,1,1,1,14.17,The cuisine is American
DANTE,Manhattan,79-81,MACDOUGAL ST,10012,2129825275,Italian,40.72877111,-74.00153341,0,0,0,37.04,The cuisine is Italian
DIG INN,Manhattan,11,PENN PLZ,10001,2125457867,American,40.74939498,-73.99177476,0,1,1,21.57,The cuisine is American
MILANO'S BAR,Manhattan,51,EAST HOUSTON STREET,10012,2122268844,Bottled Beverages,40.72476912,-73.99444037,1,1,1,14.09,The cuisine is Bottled Beverages
HOME MADE BAKLAWA,Queens,24-39,STEINWAY STREET,11103,7187770876,Bakery Products/Desserts,40.76848368,-73.91122922,0,0,1,23.55,The cuisine is Bakery Products/Desserts
WENDY'S,Queens,22006,NORTHERN BLVD,11361,7182243636,Hamburgers,40.76146862,-73.76147494,0,0,1,34.83,The cuisine is Hamburgers
VILLA FRESH ITALIAN KITCHEN,Manhattan,625,8 AVENUE,10018,2129719242,Pizza,40.75618542,-73.99056473,1,1,0,29.96,The cuisine is Pizza
URBAN BACKYARD,Manhattan,180,MULBERRY STREET,10012,6463614657,Coffee/Tea,40.72069048,-73.99674957,1,1,1,47.95,The cuisine is Coffee/Tea
BAGEL EXPRESS III,Manhattan,340,3 AVENUE,10010,2122134700,Bagels/Pretzels,40.74020442,-73.98215526,0,1,1,29.15,The cuisine is Bagels/Pretzels
EL VALLE RESTAURANT,Bronx,640,MELROSE AVENUE,10455,7185855858,Latin American,40.81842303,-73.91668648,0,1,1,30.21,The cuisine is Latin American
OVI'S PLACE,Brooklyn,2925,AVENUE H,11210,7184211640,American,40.63153663,-73.94796195,1,1,0,46.09,The cuisine is American
PANDA EXPRESS,Manhattan,414,8 AVENUE,10001,9176393302,Chinese,40.75007861,-73.99498324,1,1,0,27.81,The cuisine is Chinese
JUBILEE,Manhattan,946948,1ST AVE,,2128883569,French,0,0,0,1,1,21.06,The cuisine is French
RADHUNI SWEETS & RESTAURANT,Brooklyn,483,MCDONALD AVENUE,11218,7189720072,Bangladeshi,40.64224574,-73.97932412,0,0,1,10.44,The cuisine is Bangladeshi
EJ'S BAKERY & CAFE,Bronx,462,WEST  261 STREET,10471,3479490023,Spanish,40.91001188,-73.90267124,0,1,0,21.11,The cuisine is Spanish
"THE PENINSULA NEW YORK, CLEMENT/ THE GOTHAM LOUNGE/ SALON DE NING",Manhattan,700,FIFTH AVE,10019,2129562888,American,40.76172757,-73.97533775,0,1,0,46.6,The cuisine is American
HEALTHY FRESH,Bronx,1033,MORRIS PARK AVENUE,10461,7186846411,American,40.84861989,-73.85511078,0,0,0,10.53,The cuisine is American
HAND PULL NOODLE & DUMPLING HOUSE,Brooklyn,7201,18 AVENUE,11204,7182326191,Chinese,40.61503294,-73.99430187,1,1,0,29.58,The cuisine is Chinese
BEN'S PIZZA,Manhattan,123,MACDOUGAL STREET,10012,2126770976,Pizza,40.73036309,-74.00018762,1,1,1,32.26,The cuisine is Pizza
LENA'S ITALIAN KITCHEN,Manhattan,551,2 AVENUE,10016,6468465362,Italian,40.74252841,-73.97747406,1,1,1,29.54,The cuisine is Italian
TITAHS DELI GROCERY,Queens,10613,NORTHERN BLVD,11368,7185652527,Spanish,40.75776687,-73.86259335,1,1,0,44.25,The cuisine is Spanish
TORINO PIZZA,Staten Island,1694,RICHMOND ROAD,10304,7183513100,Pizza,40.58889028,-74.10191394,1,1,0,30.42,The cuisine is Pizza
OH BAGEL,Brooklyn,1755,CONEY ISLAND AVENUE,11230,5163135527,Jewish/Kosher,40.6143794,-73.96319665,0,1,0,36.12,The cuisine is Jewish/Kosher
LAVO NEW YORK,Manhattan,39,EAST   58 STREET,10022,2127505588,Italian,40.76280537,-73.97148561,0,0,0,47.3,The cuisine is Italian
DON PEPIS DELICATESSEN,Manhattan,,AMTRAK LEVEL,10001,2127600802,Sandwiches,,,0,0,0,49.83,The cuisine is Sandwiches
O'SAKE ROCKAWAY JAPANESE RESTAURANT,Queens,263,BEACH  116 STREET,11694,7189458888,Japanese,40.58064934,-73.83770159,1,1,1,19.93,The cuisine is Japanese
JAKE'S STEAKHOUSE,Bronx,6031,BROADWAY,10471,7185810182,Steakhouse,40.8917987,-73.89724371,1,1,0,43.45,The cuisine is Steakhouse
TARBOOSH CAFE,Brooklyn,7222,5 AVENUE,11209,7186446698,Middle Eastern,40.63146951,-74.02183261,1,1,1,36.01,The cuisine is Middle Eastern
ELLEN'S STARDUST DINER,Manhattan,1650,BROADWAY,10019,2129565151,American,40.76195688,-73.98368358,1,1,0,29.03,The cuisine is American
RENEE'S KITCHENETTE,Queens,6914,ROOSEVELT AVENUE,11377,7184769002,Filipino,40.74634271,-73.89609752,1,1,0,42.25,The cuisine is Filipino
KOBRICK COFFEE CO.,Manhattan,24,9 AVENUE,10014,2122555588,Coffee/Tea,40.74040329,-74.00574498,1,1,1,41.09,The cuisine is Coffee/Tea
STAYBRIDGE SUITES,Manhattan,340,WEST   40 STREET,10018,2127579000,American,40.75645726,-73.9919688,1,1,0,30.03,The cuisine is American
TABLE D'HOTE,Manhattan,44,EAST   92 STREET,10128,2123488125,French,40.78453061,-73.95573929,1,1,0,23.09,The cuisine is French
MONA'S CUISINE,Staten Island,360,TARGEE STREET,10304,3478253352,Caribbean,40.61846279,-74.08490002,0,0,1,12.78,The cuisine is Caribbean
MOCA ASIAN BISTRO,Queens,107-18,70 ROAD,11375,7182683333,Asian/Asian Fusion,40.72131919,-73.8454027,1,1,0,10.55,The cuisine is Asian/Asian Fusion
GREG SHIA,Queens,14734B,NORTHERN BLVD,11354,7188888817,Korean,40.76516128,-73.81907023,1,1,0,36.86,The cuisine is Korean
BUFF PATTY RESTAURANT & BAKERY,Brooklyn,376,MYRTLE AVENUE,11205,7188553266,Caribbean,40.69316784,-73.97116933,0,1,0,38.1,The cuisine is Caribbean
SAM'S FRIED ICE CREAM,Manhattan,37B,ORCHARD ST,10002,6468337538,Frozen Desserts,40.71579354,-73.99143623,1,1,1,23.69,The cuisine is Frozen Desserts
EL PASO RESTAURANT,Manhattan,123,EAST  110 STREET,10029,6465901438,Mexican,40.79512628,-73.94518264,0,1,0,22.52,The cuisine is Mexican
"DUNKIN',' BASKIN ROBBINS",Bronx,2,EAST KINGSBRIDGE ROAD,10468,7187334347,Donuts,40.86739535,-73.89724179,1,1,1,42.77,The cuisine is Donuts
WYCKOFF RESTAURANT,Brooklyn,250,WYCKOFF AVENUE,11237,3472945531,Mexican,40.7005548,-73.91295376,1,1,1,15.23,The cuisine is Mexican
FAMILY PIZZA,Brooklyn,720,FLATBUSH AVENUE,11225,7184620639,Pizza,40.65579158,-73.95991204,0,1,0,37.2,The cuisine is Pizza
LA ABUNDANCIA,Queens,6314,BROADWAY,11377,7186721515,Spanish,40.74991905,-73.89906949,0,0,0,43.85,The cuisine is Spanish
NUHMA,Queens,3315,GREENPOINT AVE,11101,2126731806,American,40.73575143,-73.93425131,1,1,0,14.31,The cuisine is American
TOMPKINS SQUARE BAGELS,Manhattan,184,2 AVENUE,10003,7188109857,Bagels/Pretzels,40.73074377,-73.98609427,0,0,1,36.57,The cuisine is Bagels/Pretzels
LA BAGEL DELIGHT,Brooklyn,73,LAFAYETTE AVENUE,11217,7182463744,Bagels/Pretzels,40.6871111,-73.97536906,1,1,0,41.38,The cuisine is Bagels/Pretzels
EAST PALACE,Manhattan,819,2 AVENUE,10017,2129497708,Chinese,40.75093701,-73.97140048,1,1,0,20.71,The cuisine is Chinese
COSTA VERDE,Queens,9459,CORONA AVENUE,11373,7182710900,Peruvian,40.74230268,-73.86948201,1,1,0,36.76,The cuisine is Peruvian
DARBAR'S CHICKEN & RIBS,Queens,12609,LIBERTY AVE,11419,7185294900,Chicken,40.68858339,-73.81812134,1,1,1,31.23,The cuisine is Chicken
SARKU JAPAN,Staten Island,2655,RICHMOND AVENUE,10314,7186983023,Japanese,40.58229742,-74.16905259,0,0,0,48.96,The cuisine is Japanese
CHINA ONE RESTAURANT,Bronx,334,EAST GUN HILL ROAD,10467,7187980109,Chinese,40.87880862,-73.87319806,0,0,0,14.78,The cuisine is Chinese
NARUTO RAMEN,Manhattan,1596,3 AVENUE,10128,2122897803,Japanese,40.781123,-73.95231846,0,0,0,33.09,The cuisine is Japanese
,Brooklyn,3324,FULTON STREET,11208,9175245534,,40.6834339,-73.87290037,0,0,0,14.86,
ROOSTER'S FRIED CHICKEN & PIZZA,Queens,4812,BROADWAY,11103,7184069661,Chicken,40.75590818,-73.91251298,0,0,0,47.32,The cuisine is Chicken
KENNEDY FRIED CHICKEN,Bronx,879,EAST TREMONT AVENUE,10460,7182990045,Chicken,40.8428,-73.88583004,0,0,1,26.26,The cuisine is Chicken
VINNIE'S PIZZERIA,Brooklyn,148,BEDFORD AVENUE,11249,7187827078,Pizza,40.71880767,-73.95668859,0,1,0,36.51,The cuisine is Pizza
SOFIA'S TAQUERIA,Staten Island,977,BAY STREET,10305,9293082324,Tex-Mex,40.61869274,-74.06951235,0,1,1,22.78,The cuisine is Tex-Mex
SALA THAI,Manhattan,307,AMSTERDAM AVENUE,10023,2124333999,Thai,40.78018704,-73.98046547,0,1,0,47.94,The cuisine is Thai
STANDINGS,Manhattan,43,EAST    7 STREET,10003,2124200671,American,40.72811729,-73.98844362,0,0,0,41.51,The cuisine is American
CINNABON,Brooklyn,5174,KINGS PLAZA MALL,11234,7182520595,Bakery Products/Desserts,40.61011256,-73.92200048,0,1,1,20.25,The cuisine is Bakery Products/Desserts
HUNAN PARK,Manhattan,721,COLUMBUS AVENUE,10025,2122226511,Chinese,40.792327,-73.96789756,1,1,1,12.22,The cuisine is Chinese
THE LONG ROOM,Manhattan,120,WEST   44 STREET,10036,2129973933,Irish,40.75645368,-73.98395204,1,1,1,25.79,The cuisine is Irish
DIAMOND LIL,Brooklyn,179,NASSAU AVENUE,11222,9177538273,American,40.72534394,-73.94604481,1,1,0,41.91,The cuisine is American
WAFELS & DINGES,Manhattan,102,W 35TH ST,10001,2125162947,French,40.75054191,-73.98754102,1,1,1,45.81,The cuisine is French
YAKITORI SUN-CHAN,Manhattan,2707,BROADWAY,10025,2127495008,Japanese,40.7993784,-73.96841064,1,1,0,14.04,The cuisine is Japanese
SERGIMMO SALUMERIA,Manhattan,456,9 AVENUE,10018,2129674212,Italian,40.75430557,-73.99561818,1,1,0,10.38,The cuisine is Italian
DIVYA'S KITCHEN,Manhattan,25,1 AVENUE,10003,2124774834,Vegetarian,40.72365427,-73.98816299,0,1,0,22.4,The cuisine is Vegetarian
HANSHIN POCHA,Queens,14946,41ST AVE,11355,3475060806,Korean,40.7624175,-73.81452568,0,0,1,13.36,The cuisine is Korean
LUCKY ZHANG'S FAMILY,Brooklyn,5622,8 AVENUE,11220,7184393366,Chinese,40.63758124,-74.0073935,0,1,1,13.08,The cuisine is Chinese
THE CROSBY STREET HOTEL,Manhattan,79,CROSBY STREET,10012,2122266400,American,40.72294671,-73.99771993,1,1,1,27.8,The cuisine is American
OLGA'S PIZZA,Manhattan,3409,BROADWAY,10031,2122347878,Pizza,40.82230567,-73.95347033,1,1,1,37.96,The cuisine is Pizza
PEPPAS,Brooklyn,8021,FLATLANDS AVENUE,11236,3059243340,Caribbean,40.63565459,-73.91306036,0,0,0,31.76,The cuisine is Caribbean
BOON THAI,Brooklyn,681,MANHATTAN AVENUE,11222,7183498215,Thai,40.72495936,-73.9514821,1,1,0,36.78,The cuisine is Thai
PARIS CAFE,Queens,0,JFK AIRPORT,11430,6179470581,American,40.64831283,-73.7882815,0,1,1,14.96,The cuisine is American
SALVO'S,Manhattan,1477,YORK AVENUE,10075,6465901925,Pizza,40.77091461,-73.95078781,1,1,0,42.86,The cuisine is Pizza
FARMERS PIZZA & GRILL,Queens,11725,FARMERS BOULEVARD,11412,7187232003,American,40.69080874,-73.76226598,1,1,1,34.56,The cuisine is American
LA ESQUINA DEL SABOR RESTAURANT,Queens,9901,NORTHERN BLVD,11368,7184047351,Latin American,40.75724502,-73.86935155,1,1,0,46.24,The cuisine is Latin American
MYRTLE THAI RESTAURANT,Brooklyn,438,MYRTLE AVENUE,11205,7184221142,Thai,40.69318898,-73.96807169,1,1,1,43.57,The cuisine is Thai
QUEENS SEAFOOD RESTAURANT,Queens,8222,45TH AVE,11373,7184783330,Chinese,40.74163342,-73.88261187,1,1,1,32.36,The cuisine is Chinese
CARVEL,Queens,10321,METROPOLITAN AVE,11375,3474944691,Frozen Desserts,40.71019967,-73.84919071,0,0,0,29.83,The cuisine is Frozen Desserts
OTTO'S TACOS,Manhattan,141,SECOND AVENUE,10003,6466784018,Tex-Mex,40.72901197,-73.98737909,0,0,0,22.88,The cuisine is Tex-Mex
CHEEBURGER CHEEBURGER,Queens,10850,QUEENS BOULEVARD,11375,7189978600,Hamburgers,40.72058454,-73.8420674,0,0,0,10.85,The cuisine is Hamburgers
CAFE 47,Manhattan,47,WEST   66 STREET,10023,6467408369,American,40.77298749,-73.98008127,0,0,0,33.54,The cuisine is American
DAWA'S,Queens,5118,SKILLMAN AVE,11377,7188998629,Coffee/Tea,40.7459366,-73.91270658,1,1,0,28.8,The cuisine is Coffee/Tea
HANG SHING KITCHEN,Queens,10409,METROPOLITAN AVENUE,11375,7187931550,Chinese,40.71009454,-73.84855972,0,0,1,40.69,The cuisine is Chinese
MERMAID SPORTS BAR,Queens,3106,31 STREET,11106,3476425133,Pizza,40.76388703,-73.92383765,0,0,1,11.61,The cuisine is Pizza
XI TOP BBQ,Queens,4030,149TH PL,11354,9172852790,Chinese,40.7626185,-73.81491859,0,0,1,30.35,The cuisine is Chinese
"DUN HUANG UPPER WEST SIDE, MELLOW TEA",Manhattan,1268,AMSTERDAM AVENUE,10027,6464764549,Chinese,40.8109442,-73.95805172,0,1,0,25.72,The cuisine is Chinese
AMERICAN CUT,Manhattan,111,EAST   56 STREET,10022,2123885277,American,40.76066973,-73.97060936,1,1,0,15.61,The cuisine is American
HUNAN HOUSE,Manhattan,40,WEST   56 STREET,10019,2122132299,Chinese,40.76285578,-73.97584271,1,1,1,28.95,The cuisine is Chinese
ROCKAWAY CAFE,Queens,0,JFK BUILDING 250,11430,7182900840,American,40.65305472,-73.76787539,0,0,0,31.18,The cuisine is American
DAISY PIZZA,Queens,2817,36TH AVE,11106,7187867861,Pizza,40.75760937,-73.93193395,0,1,0,47.05,The cuisine is Pizza
BURGER KING,Queens,9283,QUEENS BOULEVARD,11374,7185750116,Hamburgers,40.73177314,-73.86656565,1,1,1,48.22,The cuisine is Hamburgers
CAFE COLETTE,Brooklyn,79,BERRY STREET,11249,3475991381,American,40.71985929,-73.95766915,1,1,0,25.58,The cuisine is American
"DUNKIN , BASKIN ROBBINS",Manhattan,100,1 AVENUE,10009,2124207031,Donuts,40.72647291,-73.98609156,1,1,0,26.75,The cuisine is Donuts
FAT BUDDHA,Manhattan,212,AVENUE A,10009,2125980500,Asian/Asian Fusion,40.72985918,-73.98074006,1,1,0,31.08,The cuisine is Asian/Asian Fusion
S S CALABRO PIZZERIA,Queens,3065,14 STREET,11102,7182785262,Pizza,40.76935644,-73.93110599,0,1,1,34.97,The cuisine is Pizza
AGORA TURKISH RESTAURANT,Manhattan,1565,SECOND AVENUE,10028,2127171220,Turkish,40.77484642,-73.95395854,0,0,1,21.48,The cuisine is Turkish
LA PERLA DEL ULUA RESTAURANT,Brooklyn,354,MELROSE STREET,11237,7183669407,Spanish,40.70368331,-73.9280255,1,1,0,14.39,The cuisine is Spanish
SOL DE QUITO RESTAURANT,Brooklyn,189,IRVING AVENUE,11237,7184174174,Spanish,40.7017231,-73.91912665,0,1,1,18.39,The cuisine is Spanish
BARROW'S PUB,Manhattan,463,HUDSON STREET,10014,2127419349,Irish,40.73149923,-74.00666068,0,1,1,18.94,The cuisine is Irish
LUCKY DOG,Brooklyn,303,BEDFORD AVENUE,11211,3472944971,American,40.7135478,-73.96188638,1,1,1,11.92,The cuisine is American
LA KUCHARA,Queens,9507,31ST AVE,11369,7186077758,Latin American,40.76057607,-73.8732688,0,0,1,14.38,The cuisine is Latin American
STARBUCKS,Manhattan,124,8 AVENUE,10011,2124622020,Coffee/Tea,40.74119941,-74.0014507,0,1,0,17.5,The cuisine is Coffee/Tea
PATRICIA'S,Bronx,1082,MORRIS PARK AVENUE,10461,7184099069,Italian,40.84930957,-73.85353693,1,1,0,41.1,The cuisine is Italian
KALAMAKI GR,Queens,2906,172ND ST,11358,7189391616,Greek,40.77001984,-73.79325796,1,1,1,14.32,The cuisine is Greek
JUST LORRAINE'S PLACE,Manhattan,2247,ADAM CLAYTON POWELL BOULEVARD,,2122340720,American,0,0,0,0,1,46.51,The cuisine is American
NEAPOLITAN EXPRESS,Manhattan,512,7 AVENUE,10018,9174840805,Pizza,40.75327584,-73.98896981,0,0,1,30.87,The cuisine is Pizza
CAFE GALLERY,Brooklyn,2801,CONEY ISLAND AVENUE,11235,7186767979,Mediterranean,40.58829202,-73.96041717,1,1,0,45.89,The cuisine is Mediterranean
"GOTHAM CAFE, SKYLIGHT LOUNGE (INSIDE THE WATSON HOTEL)",Manhattan,440,WEST   57 STREET,10019,2126346115,American,40.76842669,-73.98695642,0,1,1,16.15,The cuisine is American
SUBWAY,Manhattan,221,7 AVENUE,10011,6467191239,Sandwiches,40.7439194,-73.995756,1,1,0,11.04,The cuisine is Sandwiches
LA ISLA CUCHIFRITOS,Bronx,510,WILLIS AVENUE,10455,7184147213,Latin American,40.81522386,-73.91835958,0,1,1,25.29,The cuisine is Latin American
ESTRELLITA POBLANA,Bronx,45-46,WESTCHESTER SQUARE,10461,7182398290,Mexican,40.84221287,-73.84401473,0,0,1,31.77,The cuisine is Mexican
MUSTANG THAKALI KITCHEN,Queens,74-14,37 AVENUE,11372,7188985088,Asian/Asian Fusion,40.74897345,-73.89151703,1,1,1,16.62,The cuisine is Asian/Asian Fusion
DON ALEX RESTAURANT,Queens,8410,37 AVENUE,11372,7184240233,Peruvian,40.74994693,-73.88224346,1,1,0,25.77,The cuisine is Peruvian
MINI STAR RESTAURANT,Queens,3002,STEINWAY STREET,11103,7187289572,American,40.76346937,-73.91534762,0,1,0,11.21,The cuisine is American
MUSTARD PANINI BAR,Brooklyn,462,AVENUE P,11223,7186451888,Jewish/Kosher,40.60908954,-73.97039903,0,0,1,14.73,The cuisine is Jewish/Kosher
BEECHER'S HANDMADE CHEESE,Manhattan,900,BROADWAY,10003,2124663340,American,40.73910196,-73.98977327,1,1,1,43.77,The cuisine is American
BEST WESTERN GREGORY HOTEL,Brooklyn,8315,4 AVENUE,11209,7182383737,American,40.6248369,-74.02750058,0,0,0,41.73,The cuisine is American
GOURMET 45,Manhattan,721,3 AVENUE,10017,2126826220,Sandwiches,40.75277638,-73.97296614,1,1,0,21.59,The cuisine is Sandwiches
JORA RESTAURANT AND BAR,Queens,4746,11TH ST,11101,7183922033,Peruvian,40.74410393,-73.95108557,0,1,0,35.9,The cuisine is Peruvian
COOL FRESH JUICE BAR,Manhattan,333,6 AVENUE,10014,6467569928,"Juice, Smoothies, Fruit Salads",40.73140884,-74.00117626,1,1,0,43.52,"The cuisine is Juice, Smoothies, Fruit Salads"
SAKIB,Brooklyn,349,BEDFORD AVENUE,11211,9179090677,Mediterranean,40.71198635,-73.96287202,1,1,0,11,The cuisine is Mediterranean
DO OR DIVE,Brooklyn,1108,BEDFORD AVENUE,11216,3474068241,American,40.68680833,-73.95461091,1,1,1,43.04,The cuisine is American
PETALUMA,Manhattan,1356,1 AVENUE,10021,2127728800,Italian,40.76818009,-73.95570688,0,0,1,35.31,The cuisine is Italian
EMPANADA LOCA,Brooklyn,606,5 AVENUE,11215,7183692118,American,40.66378279,-73.99092028,0,0,0,24.04,The cuisine is American
THE SPOT CAFE,Queens,4324,43RD AVE,11104,7187305676,"Juice, Smoothies, Fruit Salads",40.74517397,-73.92083486,1,1,0,17.31,"The cuisine is Juice, Smoothies, Fruit Salads"
PICASSO PIZZERIA,Manhattan,303,SOUTH END AVENUE,10280,2123212616,Pizza,40.71024827,-74.01632535,0,1,0,41.13,The cuisine is Pizza
TOURNESOL,Queens,50-12,VERNON BOULEVARD,11101,7184724355,French,40.74256264,-73.95417581,0,0,0,34.91,The cuisine is French
BOWLERO,Queens,6910,34 AVENUE,11377,7186510440,American,40.7524752,-73.8968567,1,1,0,40.87,The cuisine is American
MR. PIZZA,Staten Island,2325,RICHMOND AVENUE,10314,7183700102,Pizza,40.59142733,-74.16478751,0,0,1,45.24,The cuisine is Pizza
LE PARISIEN,Manhattan,163,EAST   33 STREET,10016,2128895489,French,40.74545197,-73.97953737,1,1,0,17.96,The cuisine is French
GOTHAM STADIUM TENNIS CENTER CAFE,Bronx,725,EXTERIOR STREET,10451,7186654684,Coffee/Tea,40.82345815,-73.93102085,0,0,1,34.84,The cuisine is Coffee/Tea
GOOD HEALTH CAFE,Manhattan,1435,1 AVENUE,10021,2125179898,Soups/Salads/Sandwiches,40.7695713,-73.95471675,1,1,1,37.67,The cuisine is Soups/Salads/Sandwiches
THE HALAL GUYS,Manhattan,720,AMSTERDAM AVENUE,10025,2126653033,Middle Eastern,40.79347782,-73.97079346,1,1,0,44.87,The cuisine is Middle Eastern
BO'S BAGELS,Manhattan,235,WEST  116 STREET,10026,9179028345,Bagels/Pretzels,40.80385297,-73.95401787,1,1,0,49.9,The cuisine is Bagels/Pretzels
ZARO'S BREAD BASKET,Manhattan,89,EAST   42 STREET,10017,2122920163,Bakery Products/Desserts,40.75209393,-73.97760435,1,1,0,19.31,The cuisine is Bakery Products/Desserts
POLLO DORADO FRIED CHICKEN,Manhattan,1497,ST NICHOLAS AVENUE,10033,2127952569,Latin American,40.85179811,-73.93192756,0,0,0,35.23,The cuisine is Latin American
CAFE BISTRO,Manhattan,312,WEST   34 STREET,10001,9172612450,American,40.75245828,-73.99413848,0,1,0,40.03,The cuisine is American
LUCKY STRIKE,Manhattan,624660,WEST   42 STREET,,6468290170,American,0,0,1,1,1,14.85,The cuisine is American
MARGARITA'S,Bronx,915,AVENUE SAINT JOHN,10455,9172166715,Spanish,40.81577173,-73.9028674,1,1,0,33.48,The cuisine is Spanish
MIS TIERRAS COLOMBIANAS,Queens,54-08,ROOSEVELT AVENUE,11377,7186727272,Latin American,40.74477923,-73.91034066,0,1,1,26.3,The cuisine is Latin American
MADISON'S PIZZERIA,Queens,775,WOODWARD AVENUE,11385,7188318555,Pizza,40.70384678,-73.90390031,0,1,1,10.98,The cuisine is Pizza
COMMONS CAFE,Staten Island,2,TELEPORT DRIVE,10314,3474664207,American,40.60371321,-74.17927334,1,1,0,47.77,The cuisine is American
LIBERTY TAVERN,Staten Island,382,FOREST AVENUE,10301,7184428121,American,40.63098142,-74.10211898,1,1,1,45.16,The cuisine is American
44 & X HELL'S KITCHEN,Manhattan,622,10 AVENUE,10036,2129771170,American,40.76115643,-73.99434347,0,1,0,43.47,The cuisine is American
MCDONALD'S,Queens,8003,QUEENS BOULEVARD,11373,7184781204,Hamburgers,40.73797025,-73.88368647,0,1,0,19.15,The cuisine is Hamburgers
HOT POTATO HOUSE,Brooklyn,109,ORIENTAL BOULEVARD,11235,7189757990,Eastern European,40.57691738,-73.9525728,1,1,1,19.59,The cuisine is Eastern European
NO. 1 CHINESE RESTAURANT,Queens,8817,JAMAICA AVE,11421,7188466688,Chinese,40.69269143,-73.85612887,0,1,1,42.17,The cuisine is Chinese
OOTOYA JAPANESE RESTAURANT,Manhattan,8,WEST   18 STREET,10011,2122550018,Japanese,40.73875358,-73.99242562,0,0,1,35.37,The cuisine is Japanese
GHOROA RESTAURANT,Queens,16841,HILLSIDE AVE,11432,7182629100,Bangladeshi,40.71044807,-73.79366707,1,1,1,32.26,The cuisine is Bangladeshi
FRANK'S TRATTORIA,Manhattan,371,1 AVENUE,10010,2126777140,Pizza,40.73594677,-73.97907121,0,1,1,49.29,The cuisine is Pizza
RAJDHANI INDIAN RESTUARANT,Queens,206-08,HILLSIDE AVENUE,11427,7184649100,Indian,40.72118987,-73.7592278,1,1,0,24.9,The cuisine is Indian
Yummy Kitchen,Queens,21613,LINDEN BLVD,11411,7185590783,Chinese,40.6961367,-73.74332845,1,1,0,49.04,The cuisine is Chinese
A+ ROOF BAR,Queens,3916,COLLEGE POINT BLVD,11354,9178558916,Bottled Beverages,40.75879748,-73.83447918,0,1,1,43.29,The cuisine is Bottled Beverages
CHIPOTLE MEXICAN GRILL,Manhattan,200,VARICK STREET,10014,6463366264,Tex-Mex,40.72834007,-74.00534345,1,1,0,37.35,The cuisine is Tex-Mex
DAE JAN GUEM,Queens,136-20,ROOSEVELT AVENUE,11354,7189398688,Korean,40.75977791,-73.82923543,0,0,0,17.75,The cuisine is Korean
DEMO KITCHEN,Manhattan,1000,3 AVENUE,10022,2127052232,American,40.76188723,-73.96634923,0,1,1,20.94,The cuisine is American
STEPHLOVAS CAFE,Brooklyn,952,UTICA AVENUE,11203,3473652038,Coffee/Tea,40.64959332,-73.93016343,1,1,1,43.12,The cuisine is Coffee/Tea
DAME,Manhattan,87,MACDOUGAL STREET,10012,5129637631,,40.72895776,-74.00137466,1,1,1,27.93,
TEA SHOP AND BAKERY,Queens,6109,UTOPIA PKWY,11365,7188866889,Bakery Products/Desserts,40.73867676,-73.79293699,0,1,1,47.49,The cuisine is Bakery Products/Desserts
ABACKY POTLUCK,Manhattan,253,WEST   26 STREET,10001,2129293809,Asian/Asian Fusion,40.74663122,-73.99573417,0,1,0,22.72,The cuisine is Asian/Asian Fusion
JUST SALAD,Manhattan,233,BROADWAY,10279,2123555808,Salads,40.71225833,-74.00789239,1,1,1,42.14,The cuisine is Salads
PANDA GARDEN RESTAURANT,Brooklyn,9708,3 AVENUE,11209,7186801126,Chinese,40.61562357,-74.03427192,1,1,0,47.9,The cuisine is Chinese
CLUB W,Bronx,673,HUNTS POINT AVENUE,10474,7188934466,American,40.813878,-73.88517899,1,1,0,26.03,The cuisine is American
CONNIE O'S,Brooklyn,158,NORMAN AVENUE,11222,9175787959,American,40.72662943,-73.94807863,1,1,0,33.04,The cuisine is American
BLUE RIBBON BAR,Manhattan,34,DOWNING STREET,10014,2126910404,American,40.72925688,-74.00389308,0,0,0,14.98,The cuisine is American
TOMMY'S TAVERN & TAP,Staten Island,2655,RICHMOND AVENUE,10314,7184892201,American,40.58229742,-74.16905259,0,1,0,23.68,The cuisine is American
BAY RIDGE MANOR CATERING,Brooklyn,476,76 STREET,11209,7187488855,American,40.62911961,-74.0237016,0,1,0,11.51,The cuisine is American
"ROYAL QUEEN, THE REAL KTV",Queens,13620,ROOSEVELT AVE,11354,7183583388,Chinese,40.75977791,-73.82923543,0,1,0,40.96,The cuisine is Chinese
MARAVILLA'S BAR & GRILL,Bronx,254,SOUNDVIEW AVENUE,10473,7186187440,Spanish,40.81075682,-73.85563425,1,1,0,11.8,The cuisine is Spanish
GOLDEN STAR KITCHEN,Brooklyn,638,BLAKE AVENUE,11207,4694386991,Chinese,40.66775092,-73.8952868,0,0,1,13.44,The cuisine is Chinese
MARRAKECH,Brooklyn,1915,CONEY ISLAND AVENUE,11230,6072707777,Middle Eastern,40.61079724,-73.96252153,0,0,1,34.14,The cuisine is Middle Eastern
TWO TABLESPOONS,Manhattan,230,PARK AVENUE,10169,9174465688,Vegetarian,40.75450075,-73.97595043,1,1,1,19.31,The cuisine is Vegetarian
TOMPKINS SQUARE BAR,Manhattan,110,AVENUE A,10009,2126149798,American,40.72587423,-73.98364916,1,1,1,13,The cuisine is American
BRAZEN FOX KITCHEN AND BAR,Manhattan,106,3 AVENUE,10003,2123531063,American,40.7327037,-73.98761653,0,1,1,39.95,The cuisine is American
DANTE'S GOURMET FOOD,Manhattan,166,WILLIAM STREET,10038,2122332255,American,40.71028497,-74.00569187,1,1,0,20.47,The cuisine is American
"LAGUARDIA PLAZA HOTEL, PAVILLION GRILL",Queens,10404,DITMARS BOULEVARD,11369,7182691713,American,40.7677076,-73.86656919,1,1,1,27.63,The cuisine is American
ALTESI RISTORANTE,Manhattan,26,EAST   64 STREET,10065,2123552088,Italian,40.7668726,-73.96953441,0,1,1,24.29,The cuisine is Italian
NEW CHENG'S ORIENTAL EXPRESS,Queens,4213,BOWNE ST,11355,7184456888,Chinese,40.75687362,-73.82179639,1,1,1,22.66,The cuisine is Chinese
U LIKE CHINESE TAKE OUT,Manhattan,4926,BROADWAY,10034,2129426668,Chinese,40.86749422,-73.92172635,1,1,1,43.89,The cuisine is Chinese
SUENOS AMERICANO BAR RESTAURANT,Queens,3514/16,JUNCTION BLVD,,7185330028,Spanish,0,0,1,1,1,39.11,The cuisine is Spanish
MCCANN'S PUB,Queens,36-15,DITMARS BOULEVARD,11105,7182782621,Irish,40.77423141,-73.90800458,1,1,1,25.58,The cuisine is Irish
PARIS BAGUETTE CAFE,Manhattan,2568,BROADWAY,10025,2126780404,Bakery Products/Desserts,40.79501232,-73.97150066,1,1,1,17.69,The cuisine is Bakery Products/Desserts
RAZOR'S BAR & LOUNGE,Brooklyn,87,CENTRAL AVENUE,11206,6466898572,Spanish,40.7006541,-73.92966974,1,1,1,34.07,The cuisine is Spanish
CHARACTERS KTV,Brooklyn,6117,20 AVENUE,11204,9173198883,Chinese/Japanese,40.61863856,-73.9836323,0,1,0,37,The cuisine is Chinese/Japanese
PIZZERIA Y TORTERIA LOS TIGRES DEL BRONX,Bronx,626,MELROSE AVENUE,10455,3473589482,Latin American,40.8179456,-73.91690385,1,1,0,29.97,The cuisine is Latin American
HOT JALAPENO RESTAURANT,Manhattan,219,EAST  116 STREET,10029,6463516895,Mexican,40.79768422,-73.93939086,0,0,0,28.67,The cuisine is Mexican
LE TEA,Manhattan,1134,BROADWAY,10010,8322023419,Coffee/Tea,40.74354017,-73.98904722,0,1,1,48.86,The cuisine is Coffee/Tea
WING WAH RESTAURANT INC.,Queens,11720,ROCKAWAY BLVD,11420,9176221488,Chinese,40.67628465,-73.82025683,1,1,0,39.72,The cuisine is Chinese
BLAZE 718 JAMAICAN & AMERICAN RESTAURANT,Queens,10910,GUY R BREWER BLVD,11433,3477720641,Caribbean,40.69462021,-73.7898396,0,1,0,44.66,The cuisine is Caribbean
T-SWIRL CREPE,Queens,7023,AUSTIN ST,11375,9176607178,Japanese,40.72068349,-73.84621228,1,1,0,40.78,The cuisine is Japanese
FU LAI NO. 1 RESTAURANT,Brooklyn,7023,FORT HAMILTON PARKWAY,11228,7188333853,Chinese,40.62804536,-74.01307007,0,0,0,41.55,The cuisine is Chinese
KE LAI LE ASIAN CUISINE,Brooklyn,791A,WASHINGTON AVENUE,11238,7183997999,Asian/Asian Fusion,40.67295291,-73.96281452,1,1,1,21.62,The cuisine is Asian/Asian Fusion
MIGHTY QUINN'S,Manhattan,103,2 AVENUE,10003,2126773733,Barbecue,40.72748599,-73.98848342,1,1,1,14.84,The cuisine is Barbecue
RUSTIC TABLE,Manhattan,500,WEST   42 STREET,10036,2122440744,Mediterranean,40.75966059,-73.99559255,0,0,0,17.11,The cuisine is Mediterranean
ROYAL INDIA PALACE AND RESTAURANT,Queens,11808,ATLANTIC AVENUE,11419,7188467600,Indian,40.6938614,-73.82868368,1,1,1,21.55,The cuisine is Indian
ANTOJITOS MEXICANO,Manhattan,511,WEST  181 STREET,10033,2125688800,Spanish,40.84833943,-73.93139616,0,0,0,36.58,The cuisine is Spanish
UNCLE MARIO'S,Manhattan,739,9 AVENUE,10019,2124591234,Pizza,40.76338753,-73.98902589,1,1,1,24.32,The cuisine is Pizza
PEACEFOOD DOWNTOWN,Manhattan,41,EAST   11 STREET,10003,2129792288,Vegan,40.73323391,-73.99314791,0,0,1,29.92,The cuisine is Vegan
LA CEMITA MEXICAN GRILL,Brooklyn,6417,20 AVENUE,11204,7183762364,Mexican,40.6169535,-73.98539047,0,0,1,12.89,The cuisine is Mexican
CLINTON ST BAKING COMPANY,Brooklyn,55,WATER STREET,11201,9172246042,American,40.70329391,-73.99204736,1,1,1,36.66,The cuisine is American
PANERA BREAD,Manhattan,10,UNION SQUARE EAST,10003,2126772862,American,40.73469663,-73.9899255,0,1,1,45.31,The cuisine is American
LUNA CAFE LOUNGE,Manhattan,166,2 AVENUE,10003,2125334875,Middle Eastern,40.73006587,-73.98658511,1,1,0,27.35,The cuisine is Middle Eastern
GRUENEBAUM'S BAKERY & CAFE,Bronx,5663,RIVERDALE AVENUE,10471,7184324779,Jewish/Kosher,40.90609655,-73.90431219,0,1,1,21.57,The cuisine is Jewish/Kosher
MTEA,Queens,2301,41ST AVE,11101,6462362872,Coffee/Tea,40.75297823,-73.94049645,1,1,0,31.91,The cuisine is Coffee/Tea
RATHBONES PUB,Manhattan,1702,2 AVENUE,10128,2123697361,American,40.77932723,-73.95066963,0,0,0,11.51,The cuisine is American
LAKOU,Brooklyn,195,UTICA AVENUE,11213,3472950566,Coffee/Tea,40.67206796,-73.93080672,0,0,1,44.32,The cuisine is Coffee/Tea
HUSKY-P MEALS DIRECT,Queens,18417,140TH AVE,11413,7185251161,Caribbean,40.67236999,-73.75997431,0,0,1,21.41,The cuisine is Caribbean
"JUICE PRESS (EQUINOX, west 60th street)",Manhattan,10,COLUMBUS CIRCLE,10019,6469011321,"Juice, Smoothies, Fruit Salads",40.76780849,-73.98226697,1,1,1,33.08,"The cuisine is Juice, Smoothies, Fruit Salads"
STARLIGHT GRILL RESTAURANT & SWEETS,Queens,8002,ASTORIA BOULEVARD,11370,7185058800,Pakistani,40.76528574,-73.88883339,1,1,0,12.66,The cuisine is Pakistani
MARTINIELLO'S PIZZERIA,Queens,6298,FOREST AVE,11385,7184181112,Pizza,40.71091014,-73.90517781,0,1,1,49.63,The cuisine is Pizza
CARIBBEAN FIESTA,Manhattan,1544,MADISON AVENUE,10029,2128311400,Caribbean,40.79254305,-73.95029143,1,1,0,36.42,The cuisine is Caribbean
LUPITA RESTAURANT,Manhattan,2049,2 AVENUE,10029,6465904202,Mexican,40.79016809,-73.94277435,0,1,1,45.78,The cuisine is Mexican
HOME DELI & CATERING,Queens,7135,73RD PL,11385,7186284005,Sandwiches,40.70440219,-73.87626858,1,1,1,20.51,The cuisine is Sandwiches
FESTAC GRILL AND LOUNGE,Brooklyn,263,HENDRIX STREET,11207,3477393015,African,40.67571969,-73.89014412,1,1,0,38.25,The cuisine is African
THE WILD SON,Manhattan,53,LITTLE WEST   12 STREET,10014,2127277900,Spanish,40.74052663,-74.00850922,0,0,0,46.99,The cuisine is Spanish
ZENGO NYC,Manhattan,622,3 AVENUE,10017,2128088110,Latin American,40.74957378,-73.97532422,1,1,0,49.42,The cuisine is Latin American
HUMMUS MARKET,Brooklyn,361,GRAHAM AVENUE,11211,7185995600,Middle Eastern,40.71538795,-73.94453784,0,0,0,27.16,The cuisine is Middle Eastern
THE ROYAL RESTAURANT,Brooklyn,7609,5 AVENUE,11209,7187453444,American,40.6285406,-74.0230097,1,1,1,41.7,The cuisine is American
BLUE HAVEN EAST,Manhattan,493,3 AVENUE,10016,6466784200,American,40.74526513,-73.97844032,1,1,0,35.83,The cuisine is American
HUDSON'S MARKET @ SHERATON NEW YORK,Manhattan,811,7 AVENUE,10019,2128416569,American,40.76266753,-73.98209507,1,1,1,34.12,The cuisine is American
NEW PEKING KITCHEN,Queens,7715,37TH AVE,11372,7184269789,Chinese,40.74928369,-73.88874109,1,1,0,17.2,The cuisine is Chinese
GOURMET PARK,Manhattan,119,EAST   60 STREET,10022,2129358500,Sandwiches,40.76318886,-73.96850007,0,1,0,32.02,The cuisine is Sandwiches
"MEZZE CAFE AND BAR, MEZZE EXPRESS",Queens,0,JFK INTERNATIONAL AIRPORT TERM,11430,9176840703,Sandwiches/Salads/Mixed Buffet,40.64831283,-73.7882815,1,1,0,30.91,The cuisine is Sandwiches/Salads/Mixed Buffet
EVA'S EXPRESS,Manhattan,684,3 AVENUE,10017,2128675545,Sandwiches/Salads/Mixed Buffet,40.75165122,-73.97381477,0,0,1,46.12,The cuisine is Sandwiches/Salads/Mixed Buffet
TENG DRAGON ON NY,Manhattan,2923,8 AVENUE,10039,9174978532,Chinese,40.82899521,-73.93740372,0,0,1,10.92,The cuisine is Chinese
VEGGIES NATURAL JUICE BAR & CAFE,Brooklyn,1209,NOSTRAND AVENUE,11225,3473651669,Vegetarian,40.65767622,-73.9502986,0,1,1,43.98,The cuisine is Vegetarian
COUNTRY BOYZ JERK YARD RESTAURANT,Bronx,1182,EAST GUNHILL ROAD,10469,7182316560,Caribbean,40.87308928,-73.85301428,0,0,0,23.68,The cuisine is Caribbean
GOLDEN STEAMER,Manhattan,143,MOTT STREET,10013,2122261886,Bakery Products/Desserts,40.71868131,-73.99664505,1,1,1,33.24,The cuisine is Bakery Products/Desserts
CANTINA TAQUERIA & TEQUILA BAR,Manhattan,329,LENOX AVENUE,10027,2126347665,Mexican,40.80875651,-73.94477762,1,1,1,41.88,The cuisine is Mexican
SILVER SPOON RESTAURANT,Queens,207-12,HOLLIS AVENUE,11429,7184683624,Caribbean,40.70755025,-73.7498705,1,1,1,40.22,The cuisine is Caribbean
NANA THAI STREET,Manhattan,31,EAST   21 STREET,10010,212_420_75,Thai,40.73959869,-73.98894683,0,1,1,12.05,The cuisine is Thai
GENERAL TSO'S CHINESE RESTAURANT,Bronx,1215,WHITE PLAINS ROAD,10472,7182398888,Chinese,40.83110034,-73.86189928,0,0,0,39.8,The cuisine is Chinese
CAFE 575,Manhattan,575,5 AVENUE,10017,2122041086,Coffee/Tea,40.75638411,-73.9782057,1,1,0,28.69,The cuisine is Coffee/Tea
PROVINI CAFE,Brooklyn,1302,8 AVENUE,11215,7183692154,Italian,40.6632464,-73.98131446,0,1,1,23.11,The cuisine is Italian
BOSTON ROAD CHINA,Bronx,3483,BOSTON ROAD,10469,7188819888,Chinese,40.8768034,-73.84709011,0,0,0,42.68,The cuisine is Chinese
ELEGANTE RESTAURANT,Queens,9201,ROCKAWAY BEACH BOULEVARD,11693,7186343914,Pizza,40.58637445,-73.81560334,1,1,0,24.89,The cuisine is Pizza
2 BROS PIZZA,Manhattan,755,6 AVENUE,10010,2122391117,Pizza,40.744276,-73.99181149,0,0,0,12.72,The cuisine is Pizza
BEST CHINESE RESTAURANT,Bronx,4004A,BOSTON ROAD,10475,7183792438,Chinese,40.88443594,-73.83289216,0,1,1,14.03,The cuisine is Chinese
GOLD ROOM BK,Brooklyn,429,ROGERS AVENUE,11225,9175495564,Soul Food,40.66205007,-73.95367626,1,1,1,40.73,The cuisine is Soul Food
FALAFEL OFF THE KORNER,Brooklyn,1675,EAST    2 STREET,11223,7186274122,Jewish/Kosher,40.60849703,-73.97182189,0,0,1,38,The cuisine is Jewish/Kosher
PANDA HOUSE,Brooklyn,530D,CONDUIT BOULEVARD,11208,7182777700,Chinese,40.676947,-73.86957436,1,1,0,47.13,The cuisine is Chinese
GOLDEN BIRD CHINESE RESTAURANT,Brooklyn,1669,NOSTRAND AVENUE,11226,7186938810,Chinese,40.6454998,-73.94899243,1,1,1,12.72,The cuisine is Chinese
Q & I BAKERY,Brooklyn,6516,11 AVENUE,11219,7182382638,Bakery Products/Desserts,40.62848236,-74.00609917,0,0,0,22.07,The cuisine is Bakery Products/Desserts
ADDICTIVE WINE BAR & TAPAS 1,Queens,8701,NORTHERN BLVD,11372,3478320951,Tapas,40.75606329,-73.88058306,1,1,0,49.96,The cuisine is Tapas
CAFE ATELIER (ART STUDENTS LEAGUE),Manhattan,215,WEST   57 STREET,10019,2122474510,American,40.76588694,-73.98089567,1,1,1,32.82,The cuisine is American
MOE'S SOUTHWEST GRILL,Staten Island,2397,HYLAN BOULEVARD,10306,7189798226,Mexican,40.57254252,-74.10768059,1,1,1,44.3,The cuisine is Mexican
KABU BAR & LOUNGE,Queens,8509,NORTHERN BOULEVARD,11372,7184298113,Latin American,40.75587302,-73.88238816,0,0,0,29.3,The cuisine is Latin American
TUNG THONG 181,Manhattan,812,WEST  181 STREET,10033,2125685888,Thai,40.85104719,-73.93882876,0,1,1,49.77,The cuisine is Thai
KENNEDY FRIED CHICKEN & PIZZA,Bronx,1708,DR MARTIN L KING JR BOULEVARD,,3478624713,Chicken,0,0,1,1,0,31.06,The cuisine is Chicken
LAVATERA MEDITERRANEAN GRILL,Brooklyn,17,OLD FULTON STREET,11201,3477992217,Mediterranean,40.70259409,-73.9936632,0,0,0,29.53,The cuisine is Mediterranean
BANGKOK CUISINE,Manhattan,1586,2 AVENUE,10028,2129881112,Thai,40.77548849,-73.95346706,0,0,0,21.49,The cuisine is Thai
THE PENN CLUB,Manhattan,30,WEST   44 STREET,10036,2124036630,American,40.75524829,-73.98108642,0,1,0,25.33,The cuisine is American
CHINA KING OGDEN RESTAURANT,Bronx,1377,OGDEN AVENUE,10452,7189928888,Chinese,40.84199476,-73.92448879,1,1,1,33.46,The cuisine is Chinese
KEVIN'S,Brooklyn,277,VAN BRUNT AVENUE,,7185968335,American,0,0,0,0,1,47.9,The cuisine is American
CALI AJI CON SABOR RESTAURANT,Queens,98-15,ASTORIA BOULEVARD,11369,7184768935,Latin American,40.76229189,-73.87111405,1,1,1,19.44,The cuisine is Latin American
PINO'S LA FORCHETTA,Brooklyn,181,7 AVENUE,11215,7189654020,Pizza,40.67137306,-73.97782623,1,1,0,38.48,The cuisine is Pizza
CHUCK E. CHEESE'S,Staten Island,1775,SOUTH AVENUE,10314,7184941395,Pizza,40.60162137,-74.19297001,0,0,1,26.6,The cuisine is Pizza
96 FAVOR TASTE RESTAURANT,Queens,13541,37TH AVE,11354,7184609699,Chinese,40.76135695,-73.8316391,1,1,1,31.49,The cuisine is Chinese
BALABOOSTA,Manhattan,611,HUDSON STREET,10014,2123901545,Mediterranean,40.73763657,-74.00568339,1,1,1,22.23,The cuisine is Mediterranean
VIP COFFEE II,Brooklyn,2214,86 STREET,11214,7183300889,Chinese,40.60170971,-73.99345315,1,1,0,32.24,The cuisine is Chinese
ROSA'S PIZZA & PASTA,Queens,6265,FRESH POND ROAD,11385,7184977672,Pizza,40.7124487,-73.90045748,0,1,1,22.42,The cuisine is Pizza
GREY CAFE,Queens,19519,NORTHERN BLVD,11358,7182292342,,40.75795229,-73.78641201,0,1,0,48.61,
MITI MITI TAPERIA,Brooklyn,138,5 AVENUE,11217,7182303760,Mexican,40.67867163,-73.97894144,1,1,1,12.7,The cuisine is Mexican
GUPSHUP,Manhattan,113,EAST   18 STREET,10003,2125187313,Indian,40.73679342,-73.98774568,0,0,0,39.3,The cuisine is Indian
HOUSE OF WARIS BOTANICALS,Manhattan,242,TENTH AVENUE,10001,3127312754,Coffee/Tea,40.7484373,-74.0036127,0,1,1,20.34,The cuisine is Coffee/Tea
PAPA JOHN'S,Brooklyn,138,4 AVENUE,11217,7188527272,Pizza,40.68022556,-73.98114744,1,1,0,31.58,The cuisine is Pizza
FRUITEA,Queens,5705,MAIN ST,11355,7184450055,"Juice, Smoothies, Fruit Salads",40.7463541,-73.82614098,0,0,0,22.6,"The cuisine is Juice, Smoothies, Fruit Salads"
THE GREAT NORTHERN DELI AND DANISH DOGS,Manhattan,89,EAST   42 STREET,10017,6462799871,Scandinavian,40.75209393,-73.97760435,0,0,1,28.06,The cuisine is Scandinavian
NEW UP UP RESTAURANT,Brooklyn,5623,8 AVENUE,11220,9173096992,Chinese,40.63757026,-74.00737549,1,1,0,31.3,The cuisine is Chinese
KENNEDY CHICKEN,Queens,1850,COLLEGE POINT BLVD,11356,7188869333,Chicken,40.78293431,-73.84588018,0,1,1,10.58,The cuisine is Chicken
"TWIN DONUT, BLIMPIES",Bronx,196,EAST  161 STREET,10451,7189937050,Bagels/Pretzels,40.82642445,-73.92128704,1,1,1,21.7,The cuisine is Bagels/Pretzels
HELL'S CHICKEN,Manhattan,641,10 AVENUE,10036,2127571120,Chicken,40.7618124,-73.99388858,1,1,1,24.09,The cuisine is Chicken
BALVANERA,Manhattan,152,STANTON STREET,10002,2125333348,Spanish,40.72053041,-73.98544344,1,1,0,22.8,The cuisine is Spanish
ROAST N CO,Queens,10012,QUEENS BLVD,11375,7182636000,Coffee/Tea,40.72686052,-73.85348959,1,1,0,32.35,The cuisine is Coffee/Tea
SOHO ROOM,Manhattan,203,SPRING STREET,10012,2123343855,American,40.72530717,-74.00349238,1,1,1,13.87,The cuisine is American
JACOB SOUL FOOD RESTAURANT,Manhattan,373,LENOX AVENUE,10027,2128663663,Soul Food,40.81011193,-73.94378307,0,0,0,38.59,The cuisine is Soul Food
TALK OF THE TOWN,Staten Island,24,GIFFORDS LANE,10308,7189489442,Bottled Beverages,40.55145818,-74.15044962,0,0,0,23.22,The cuisine is Bottled Beverages
CROSSBAY DELI & GRILL,Queens,10510,CROSSBAY BLVD,11417,7188488887,Sandwiches,40.67979772,-73.84447901,1,1,1,14.4,The cuisine is Sandwiches
JUDGE ROY BEAN,Manhattan,38,WEST   56 STREET,10019,2122628300,American,40.76283655,-73.97579579,1,1,0,36.86,The cuisine is American
COUNTRY BAY PIZZA,Bronx,3233,AMPERE AVENUE,10465,9297779555,Pizza,40.84619824,-73.81964052,0,0,1,32.54,The cuisine is Pizza
FUSION HK BAR-GRILL,Manhattan,688,10 AVENUE,10019,2129560185,Mexican,40.76355799,-73.99258885,0,0,0,26.07,The cuisine is Mexican
FANTASY BAR AND RESTAURANT,Bronx,23,EAST TREMONT AVENUE,10453,9175642040,Spanish,40.85157626,-73.9088334,0,0,0,40.3,The cuisine is Spanish
OOH LALA RESTAURANT & BAKERY,Brooklyn,363,UTICA AVENUE,11213,7184848811,Caribbean,40.6656922,-73.93140812,1,1,0,13.7,The cuisine is Caribbean
OVEST PIZZOTECA,Manhattan,513,WEST   27 STREET,10001,2129674392,Pizza,40.7506386,-74.00334574,0,1,1,12.81,The cuisine is Pizza
CANCUN CAFE,Queens,8605,JAMAICA AVE,11421,3477206177,Mexican,40.69258402,-73.85803671,0,1,1,48.15,The cuisine is Mexican
CAFE NALA,Queens,709,SENECA AVENUE,11385,3477729487,American,40.70269418,-73.90748334,0,0,0,45.78,The cuisine is American
DISTRICT SOCIAL,Manhattan,252,WEST   37 STREET,10018,2129949599,American,40.75350655,-73.99072754,1,1,0,49.66,The cuisine is American
ANDAZ 5TH AVENUE,Manhattan,485,5 AVENUE,10017,6462136785,American,40.75300584,-73.98121339,1,1,1,13.75,The cuisine is American
CAFE PATORO,Manhattan,223,FRONT STREET,10038,9172620031,Bakery Products/Desserts,40.70746621,-74.00221822,1,1,0,24.38,The cuisine is Bakery Products/Desserts
MOTHERS SEAFOOD & MORE,Brooklyn,3814,CHURCH AVENUE,11203,3474420400,Seafood,40.65116976,-73.94165793,1,1,0,29.24,The cuisine is Seafood
LITTLE ITALY PIZZA,Manhattan,214,WEST   92 STREET,10025,2125947817,Pizza,40.79173541,-73.97283469,1,1,0,29.89,The cuisine is Pizza
AFGHAN CHAI KHANA,Queens,2310,31ST ST,11105,7187215020,Afghan,40.77405708,-73.91324725,1,1,1,25.63,The cuisine is Afghan
FAMOUS ROTISSERIE AND GRILL,Queens,90-15,QUEENS BOULEVARD,11373,9174346866,Chinese,40.73384018,-73.87157703,1,1,1,45.66,The cuisine is Chinese
CURRY IN A HURRY,Manhattan,119,LEXINGTON AVENUE,10016,2126830900,Indian,40.74277629,-73.98234222,0,1,0,36.25,The cuisine is Indian
COLOR ME GREENS,Brooklyn,1522,MYRTLE AVENUE,11237,7184503469,American,40.69936894,-73.91281106,1,1,1,18.74,The cuisine is American
AMC THEATRES,Manhattan,570,2 AVENUE,10016,2124470638,American,40.74305532,-73.97704443,0,1,1,12.46,The cuisine is American
VIN SUR VINGT,Manhattan,201,WEST   11 STREET,10014,2129244442,French,40.73654154,-74.00122326,0,1,0,41.04,The cuisine is French
NUEVO DON FRANCISCO RESTAURANT,Queens,4056,JUNCTION BLVD,11368,7186392665,Latin American,40.74804391,-73.86876695,0,1,0,16.31,The cuisine is Latin American
TACO BELL,Queens,5729,MYRTLE AVE,11385,7184177308,Tex-Mex,40.70047246,-73.90272227,1,1,0,42.72,The cuisine is Tex-Mex
THE MEZZ (GOOGLE),Manhattan,75,9 AVENUE,10011,2019957153,American,40.74186904,-74.00471301,1,1,0,36.24,The cuisine is American
CHASERS,Queens,6063,FLUSHING AVENUE,11378,7183262973,Irish,40.72012192,-73.90557952,0,1,1,34.93,The cuisine is Irish
BUONO BAKERY,Staten Island,1117,HYLAN BOULEVARD,10305,7184483229,Bakery Products/Desserts,40.59856939,-74.07995211,0,1,1,45.46,The cuisine is Bakery Products/Desserts
STARBUCKS COFFEE # 26528,Manhattan,1040,6 AVENUE,10018,2123022132,Coffee/Tea,40.75301743,-73.98541105,1,1,0,43.39,The cuisine is Coffee/Tea
SHUN WON FLUSHING,Queens,4127,MAIN ST,11355,7184606118,Chinese,40.75738972,-73.82907192,1,1,1,39.21,The cuisine is Chinese
SOM BO,Manhattan,143,8TH AVE,10011,9173856399,Asian/Asian Fusion,40.74175111,-74.0010754,1,1,1,36.84,The cuisine is Asian/Asian Fusion
BLACK ANT,Manhattan,60,2 AVENUE,10003,2125980300,Mexican,40.72582003,-73.98967791,1,1,1,10.42,The cuisine is Mexican
INDIAN SPICE,Brooklyn,351,7 AVENUE,11215,7187687777,Indian,40.66614502,-73.98218236,0,0,1,22.53,The cuisine is Indian
AMY'S BREAD,Manhattan,75,NINTH AVENUE,10011,2124624338,Bakery Products/Desserts,40.74186904,-74.00471301,1,1,0,45.1,The cuisine is Bakery Products/Desserts
OCEANA,Manhattan,120,WEST   49 STREET,10019,2127595941,Seafood,40.75960433,-73.9817241,1,1,1,20.52,The cuisine is Seafood
TSUSHIMA,Manhattan,210,EAST   44 STREET,10017,2122071938,Japanese,40.75184043,-73.97301344,1,1,1,31.52,The cuisine is Japanese
BELLEROSE FAMOUS PIZZA,Queens,24822,UNION TURNPIKE,11426,7183472100,Pizza,40.74244012,-73.72170239,0,1,1,35.52,The cuisine is Pizza
RAKU RESTAURANT,Manhattan,48,MACDOUGAL STREET,10012,2129894797,Japanese,40.72731362,-74.00273843,0,0,0,24.64,The cuisine is Japanese
UNCLE PAULS PIZZA NY,Manhattan,70,VANDERBILT AVENUE,10017,2129221200,Pizza,40.75466012,-73.97675527,0,1,0,37.23,The cuisine is Pizza
OLIGARCH,Queens,8615,LEFFERTS BLVD,11418,7188801406,Jewish/Kosher,40.70084522,-73.83128038,0,1,1,16.25,The cuisine is Jewish/Kosher
COSME,Manhattan,35,EAST   21 STREET,10010,2129139659,Mexican,40.73956849,-73.98887105,0,0,1,14.87,The cuisine is Mexican
GOLDEN KRUST CARIBBEAN BAKERY & GRILL,Brooklyn,918B,FULTON STREET,11238,7187891833,Caribbean,40.68291416,-73.96425837,0,0,1,17.44,The cuisine is Caribbean
BOIL BOIL RAMEN,Manhattan,1000,8 AVENUE,10019,8475279730,Asian/Asian Fusion,40.76681223,-73.98280875,0,0,1,16.49,The cuisine is Asian/Asian Fusion
HIMALAYAN YAK RESTAURANT,Queens,7220,ROOSEVELT AVENUE,11372,7187791119,Indian,40.74664474,-73.89321707,1,1,1,12.16,The cuisine is Indian
MOOBURGER,Brooklyn,240,COURT STREET,11201,7182468259,American,40.68572475,-73.99428499,0,1,0,19.57,The cuisine is American
LENOX SAPHIRE,Manhattan,341,LENOX AVENUE,10027,2128669700,African,40.80920374,-73.94444852,1,1,1,16.11,The cuisine is African
SEPPE PIZZA BAR,Staten Island,7,NAVY PIER COURT,10304,7187273773,Pizza,40.62882068,-74.07438645,1,1,1,19.25,The cuisine is Pizza
DOMINICK'S BAR & RESTAURANT,Bronx,2335,ARTHUR AVENUE,10458,7187332807,Italian,40.85418803,-73.8887493,1,1,1,26.19,The cuisine is Italian
W XYZ LOUNGE,Queens,2745,JACKSON AVE,11101,7187843626,American,40.74810857,-73.93962742,1,1,0,41.17,The cuisine is American
DELICIAS CUENCANAS RESTAURANT,Queens,17218,HILLSIDE AVE,11432,9176517022,Spanish,40.71178084,-73.78998729,0,0,1,39.34,The cuisine is Spanish
BLACK FOX,Manhattan,85,BROAD STREET,10004,4242160895,American,40.70420761,-74.01155943,0,1,0,34.71,The cuisine is American
CAFE SABARSKY,Manhattan,1048,5 AVENUE,10028,2122880665,German,40.78129896,-73.96032366,1,1,1,49.13,The cuisine is German
LAS CHATAS TAQUERIA & DELI GROCERY,Bronx,599,EAST  184 STREET,10458,7183651207,Mexican,40.85370858,-73.88966104,0,0,0,15.1,The cuisine is Mexican
PICK & EAT,Manhattan,4179,BROADWAY,10033,2127950054,American,40.84745668,-73.93807665,0,0,0,17.98,The cuisine is American
787 COFFEE,Manhattan,100,LEXINGTON AVE,10016,6463987994,Coffee/Tea,40.7422055,-73.98308939,1,1,0,16.42,The cuisine is Coffee/Tea
FRESNO II GOURMET DELI,Manhattan,31,AVENUE C,10009,2122531500,Sandwiches,40.72163035,-73.98064865,1,1,1,14.61,The cuisine is Sandwiches
ENLIGHTENMENT WINES,Brooklyn,99,SCOTT AVENUE,11237,4014866116,American,40.7105722,-73.92304754,0,1,0,38.46,The cuisine is American
SUGARNCOAL-AROMA,Queens,6340,WOODHAVEN BLVD,11374,7182000010,Indian,40.72341194,-73.86839354,0,1,1,27.28,The cuisine is Indian
CRAFT & CARRY,Manhattan,466,AMSTERDAM AVENUE,10024,9175750469,,40.78536844,-73.97671562,0,1,1,20.42,
C LOUNGE,Bronx,1186,EVERGREEN AVENUE,10472,6467097366,Latin American,40.82780321,-73.88088743,1,1,0,45.08,The cuisine is Latin American
Z FANCY FOODZ,Brooklyn,1212,AVENUE Z,11235,3474923315,Russian,40.58758016,-73.95773532,0,1,0,48.54,The cuisine is Russian
HEIGHTS FALAFEL,Brooklyn,78,HENRY STREET,11201,7184880808,Middle Eastern,40.69849608,-73.99252398,1,1,1,37.87,The cuisine is Middle Eastern
BARAWINE,Manhattan,27,WEST  120 STREET,10027,6467564154,French,40.80410505,-73.94666341,0,1,1,22.5,The cuisine is French
RULAY LOUNGE BAR & RESTAURANT,Bronx,2959,WEBSTER AVENUE,10458,9292659357,Spanish,40.86761235,-73.88305389,1,1,0,41.86,The cuisine is Spanish
REPUBLICA,Manhattan,160,DYCKMAN STREET,10040,6468959444,Latin American,40.86370666,-73.92611265,1,1,0,40.51,The cuisine is Latin American
GLORY DELI & GROCERY,Queens,4630,VERNON BOULEVARD,11101,7184721113,Sandwiches,40.74602606,-73.95300773,0,1,0,40.29,The cuisine is Sandwiches
EASTERN CHINESE RESTAURANT,Queens,2105,BROADWAY,11106,7182787333,Chinese,40.76511327,-73.93148222,0,1,1,32.92,The cuisine is Chinese
J AND C RESTAURANT,Brooklyn,2187,CLARENDON ROAD,11226,3472591141,Caribbean,40.64274179,-73.95688949,0,0,1,25.64,The cuisine is Caribbean
BREAD & BUTTER,Manhattan,14,EAST   44 STREET,10017,2128830444,Sandwiches,40.75446022,-73.97922058,1,1,0,28.1,The cuisine is Sandwiches
FUDING WOK,Brooklyn,5216,7 AVENUE,11220,7188515415,Chinese,40.64117692,-74.00724257,1,1,1,42.45,The cuisine is Chinese
MAIN STREET COFFEE,Staten Island,173,MAIN STREET,10307,3476307556,Coffee/Tea,40.51075743,-74.24850215,1,1,0,36.12,The cuisine is Coffee/Tea
MCG GRAND CAFE,Brooklyn,1199,NOSTRAND AVENUE,11225,7187740555,Caribbean,40.65808796,-73.95034515,0,1,0,14.06,The cuisine is Caribbean
NEW FLYING DRAGON,Bronx,1183,MORRISON AVENUE,10472,7189912688,Chinese,40.82872125,-73.87437792,0,1,0,38.6,The cuisine is Chinese
FONTANAS,Brooklyn,2359,RALPH AVENUE,11234,7184444300,Italian,40.62051205,-73.91735592,0,1,1,31.22,The cuisine is Italian
MOM'S TOUCH,Queens,25422,NORTHERN BLVD,11362,7182252416,Korean,40.77161208,-73.7346676,1,1,1,46.37,The cuisine is Korean
US KENNEDY FRIED CHICKEN,Bronx,1439A,WEBSTER AVENUE,10456,3473627162,Chicken,40.83722239,-73.9067896,1,1,0,19.61,The cuisine is Chicken
DANIELA TRATTORIA,Manhattan,728,8 AVENUE,10036,2128693585,Italian,40.75931973,-73.9882577,0,0,1,22.02,The cuisine is Italian
TAIYAKI NYC,Manhattan,119,BAXTER STREET,10013,2129662882,Frozen Desserts,40.71805829,-73.99897549,1,1,0,20.38,The cuisine is Frozen Desserts
SHANGHAI 21,Manhattan,21,MOTT STREET,10013,2127666311,Chinese,40.71436383,-73.99878436,1,1,1,26.52,The cuisine is Chinese
CHILI'S GRILL & BAR,Queens,8016,COOPER AVENUE,11385,7183664272,Tex-Mex,40.70944514,-73.86956824,1,1,0,17.64,The cuisine is Tex-Mex
LA ISLA,Brooklyn,4920,5 AVENUE,11220,7187489375,Latin American,40.64549975,-74.00991684,0,0,1,23.87,The cuisine is Latin American
TAQUERIA Y FONDA LA MEXICANA,Manhattan,968,AMSTERDAM AVENUE,10025,2125310383,Mexican,40.80145518,-73.96497105,0,1,1,31.98,The cuisine is Mexican
THE AINSWORTH,Manhattan,64,3 AVENUE,10003,2127410646,American,40.73122987,-73.98868843,0,0,1,27.38,The cuisine is American
JUICEADE,Bronx,1345,SOUTHERN BOULEVARD,10459,7189916369,"Juice, Smoothies, Fruit Salads",40.83123632,-73.89140046,0,0,1,49.65,"The cuisine is Juice, Smoothies, Fruit Salads"
SO GONG DONG TOFU HOUSE,Queens,14906,41ST AVE,11355,7183210220,Korean,40.76213646,-73.81556249,1,1,0,35.51,The cuisine is Korean
KORI'S EAT/MALLIA'S,Bronx,3762,BOSTON ROAD,10469,6464571804,Caribbean,40.88098967,-73.83944278,1,1,1,44.03,The cuisine is Caribbean
SPICY PALACE,Queens,3717,PRINCE ST,11354,9179080909,Chinese,40.76027402,-73.83249375,0,0,1,42.62,The cuisine is Chinese
PRONTO PIZZA,Staten Island,337,NEW DORP LANE,10306,7183512700,Pizza,40.57122992,-74.11116996,0,0,1,43.6,The cuisine is Pizza
THE GASTRO BAR,Manhattan,345,WEST   35 STREET,10001,6462008857,Tapas,40.75341346,-73.9942936,0,1,1,34.66,The cuisine is Tapas
MAMA'S FRIED CHICKEN,Manhattan,2925,8 AVENUE,10039,2122899028,Chicken,40.82906105,-73.93735307,1,1,0,34.92,The cuisine is Chicken
POP'S COFFEE DINER,Queens,4429B,KISSENA BOULEVARD,11355,7184637719,American,40.75331136,-73.82208748,1,1,0,31.66,The cuisine is American
NEW SUCCESS CHINESE,Queens,14209,FARMERS BLVD,11434,7189783911,Chinese,40.67014131,-73.76531754,1,1,0,27.78,The cuisine is Chinese
CAFE Y ALGO MAS,Queens,9813,ASTORIA BOULEVARD,11369,7182050450,Bakery Products/Desserts,40.76229465,-73.87112848,0,1,0,44.94,The cuisine is Bakery Products/Desserts
JULIETTE,Brooklyn,135,NORTH    5 STREET,11249,7183889222,French,40.71693943,-73.95924744,0,0,0,14.19,The cuisine is French
TWO BOOTS,Brooklyn,284,5 AVENUE,11215,7184990008,Pizza,40.67408841,-73.98221267,0,0,0,48.36,The cuisine is Pizza
JUANITO RESTAURANT,Bronx,494,EAST  138 STREET,10454,3479189980,Spanish,40.80776461,-73.91974867,1,1,0,19.68,The cuisine is Spanish
FRAUNCES TAVERN,Manhattan,54,PEARL STREET,10004,2129681776,American,40.7034885,-74.01137537,0,1,0,40.35,The cuisine is American
WING HING CHINESE CUISINE,Brooklyn,2932A,AVENUE R,,9172153368,Chinese,0,0,0,0,1,14.26,The cuisine is Chinese
CABANA,Queens,10712,70 ROAD,11375,7182633600,Latin American,40.72111625,-73.84552944,0,1,1,46.53,The cuisine is Latin American
REGGAE SUN DELIGHTS NATURAL JUICE BAR,Manhattan,227229,WEST 145 STREET,,6463689725,"Juice, Smoothies, Fruit Salads",0,0,0,0,1,15.91,"The cuisine is Juice, Smoothies, Fruit Salads"
PELICANA CHICKEN,Queens,4708,GREENPOINT AVE,11104,3477179001,Korean,40.74255323,-73.91766226,1,1,0,43.62,The cuisine is Korean
PERSHING SQUARE CAFE,Manhattan,90,EAST   42 STREET,10017,2122869600,American,40.75212964,-73.9777415,0,1,1,35.04,The cuisine is American
THE IZAKAYA,Manhattan,326,EAST    6 STREET,10003,9174751284,Japanese,40.7270495,-73.98774747,0,1,1,28.16,The cuisine is Japanese
LITTLE SAIGON CUISINE,Queens,25309,NORTHERN BOULEVARD,11362,7186318000,Southeast Asian,40.77082048,-73.73537478,1,1,0,43.61,The cuisine is Southeast Asian
SANTA ANA DELI & GROCERY,Brooklyn,171,IRVING AVENUE,11237,7186284691,Mexican,40.70219304,-73.91995559,0,1,0,30.36,The cuisine is Mexican
BRICOLAGE,Brooklyn,162,5 AVENUE,11217,7182301835,Southeast Asian,40.67787025,-73.97947887,1,1,0,29.6,The cuisine is Southeast Asian
RAJU DRUNK MUNKY,Manhattan,31,CORNELIA STREET,10014,9173628927,Indian,40.73132647,-74.00241747,0,0,1,45.36,The cuisine is Indian
JOE & JOHN'S PIZZA RESTAURANT,Queens,5910,MYRTLE AVE,11385,7184970078,Pizza,40.70049427,-73.89937181,1,1,1,30.71,The cuisine is Pizza
STYLEZ KITCHEN,Brooklyn,1067,RALPH AVENUE,11236,7186765464,Caribbean,40.64921092,-73.92041221,0,1,1,34.37,The cuisine is Caribbean
LUIGIS GRILL PIZZA,Manhattan,936,8 AVENUE,10019,2122458432,Pizza,40.76566778,-73.98362491,1,1,1,12.99,The cuisine is Pizza
MEDINA FRIED CHICKEN & INDIAN CUISINE,Queens,7617,101 AVENUE,11416,7186590652,Chicken,40.67993724,-73.86122565,1,1,1,49.46,The cuisine is Chicken
GRANDPA'S BRICK OVEN PIZZA,Manhattan,4973,BROADWAY,10034,2123041185,Pizza,40.86816521,-73.91959596,1,1,0,28.11,The cuisine is Pizza
CHILO'S,Brooklyn,323,FRANKLIN AVENUE,11238,9176979921,Tex-Mex,40.68834636,-73.95709788,1,1,0,31.82,The cuisine is Tex-Mex
IMPASTO,Brooklyn,373,WAVERLY AVENUE,11238,9176077627,Pizza,40.68693596,-73.96657831,0,0,0,21.74,The cuisine is Pizza
JUICE VITALITY,Manhattan,192,1 AVENUE,10009,2124770071,"Juice, Smoothies, Fruit Salads",40.7297718,-73.98368789,1,1,1,44.66,"The cuisine is Juice, Smoothies, Fruit Salads"
ARBY'S,Queens,17514,HORACE HARDING EXPY,11365,9174951640,Sandwiches,40.73837518,-73.79465561,0,1,0,45.13,The cuisine is Sandwiches
HAMRO BHIMS CAFE,Queens,7410,37TH RD,11372,9172513808,Asian/Asian Fusion,40.74724679,-73.8912997,1,1,0,14.41,The cuisine is Asian/Asian Fusion
GEORGE AND JACKS,Brooklyn,103,BERRY STREET,11249,6467328518,American,40.7190938,-73.95849576,1,1,1,19.35,The cuisine is American
HOT SPACE SZECHWAN RESTAURANT,Brooklyn,774,51 STREET,11220,7189808801,Chinese,40.64087512,-74.00485358,0,0,0,20.22,The cuisine is Chinese
LUCKY RESTAURANT,Bronx,653,EAST  182 STREET,10457,7183291506,Chinese,40.85114655,-73.88842908,0,1,1,16.11,The cuisine is Chinese
WASABI RESTAURANT,Brooklyn,7222,18 AVENUE,11204,7183313933,Japanese,40.61495335,-73.99440633,1,1,0,24.73,The cuisine is Japanese
JOE'S PIZZA,Manhattan,1435,BROADWAY,10018,6465594878,Pizza,40.75453271,-73.98680756,0,0,0,20.16,The cuisine is Pizza
STARBUCKS #54446,Brooklyn,325,LAFAYETTE AVENUE,11238,2126159700,Coffee/Tea,40.68861991,-73.9622829,0,0,1,44.99,The cuisine is Coffee/Tea
MIMI'S HUMMUS,Brooklyn,1209,CORTELYOU ROAD,11218,7182844444,Middle Eastern,40.6401211,-73.96687208,0,1,1,40.73,The cuisine is Middle Eastern
WEATHER UP,Brooklyn,589,VANDERBILT AVENUE,11238,2029073372,American,40.67992896,-73.96803479,0,1,1,45.53,The cuisine is American
KISMAT INDIAN CUISINE,Manhattan,603,FORT WASHINGTON AVENUE,10040,2127958633,Indian,40.85523458,-73.93685115,1,1,0,34.96,The cuisine is Indian
DRAGON SEA,Bronx,703,EAST  180 STREET,10457,7185849499,Chinese,40.84803146,-73.88861867,1,1,0,36.02,The cuisine is Chinese
DUAL TOWNE PLACE SUITES/SPRINGHILL SUITES,Manhattan,140,WEST   28 STREET,10001,9732231764,,40.74654592,-73.99176068,0,0,1,24.86,
ANPANMAN BAKERY CAFE,Manhattan,83,CANAL STREET,10002,2123438077,Chinese,40.71528313,-73.99314976,0,0,0,45.26,The cuisine is Chinese
COOPER'S CRAFT & KITCHEN,Manhattan,87,2 AVENUE,10003,6466062384,American,40.72686846,-73.9889273,0,0,0,23.28,The cuisine is American
PAPA JOHN'S (STAND 310),Bronx,1,EAST  161 STREET,10451,9172843260,Pizza,40.82902843,-73.92849646,1,1,1,12.41,The cuisine is Pizza
GOLD GRILL PIZZERIA,Staten Island,819,FOREST AVENUE,10310,7186738341,Pizza,40.62893629,-74.11675683,1,1,1,21.09,The cuisine is Pizza
"TROYKA, DA MIKELLE PALACE/MIKELLE CORNER",Queens,10255,QUEENS BOULEVARD,11375,7188300500,Jewish/Kosher,40.72537758,-73.85076894,0,0,0,39.26,The cuisine is Jewish/Kosher
CUPIDO'S RESTAURANT,Brooklyn,609,SUTTER AVENUE,11207,3474999340,Latin American,40.66919024,-73.89645248,0,0,1,13.39,The cuisine is Latin American
BAY THAI RESTAURANT,Brooklyn,6735,3 AVENUE,11220,7187489354,Thai,40.6370187,-74.02550954,1,1,1,45.55,The cuisine is Thai
CITY CINEMAS 123,Manhattan,1001,3 AVENUE,10022,2128329054,American,40.76187899,-73.96633119,1,1,1,35.61,The cuisine is American
I LOVE PIZZA,Bronx,3075,3 AVENUE,10451,7182925503,Pizza,40.82101368,-73.91247764,1,1,0,24.52,The cuisine is Pizza
BEATS KARAOKE CAFE,Brooklyn,219,GRAND STREET,11211,7183023030,Korean,40.71379953,-73.95957401,0,0,1,34.51,The cuisine is Korean
PARRILLADAS SUNRISE MEXICAN RESTAURANT BAR,Queens,8311,NORTHERN BLVD,11372,9173964825,Mexican,40.75568002,-73.88423295,0,0,1,38.51,The cuisine is Mexican
L.A. SWEETSNY,Manhattan,192,LENOX AVENUE,10026,6469645855,Bakery Products/Desserts,40.80433896,-73.94797443,1,1,0,49.28,The cuisine is Bakery Products/Desserts
"SUGAR HILL RESTAURANT, SUPPER CLUB AND DISCO",Brooklyn,609,DEKALB AVENUE,11216,7187971727,American,40.69138798,-73.95126863,1,1,1,45.47,The cuisine is American
ZLS BBQ,Manhattan,219,EAST   23 STREET,10010,6467819595,Chinese,40.7385686,-73.98251655,1,1,0,10.62,The cuisine is Chinese
SOTTO VOCE RESTAURANT,Brooklyn,225,7 AVENUE,11215,7183699322,Italian,40.67003108,-73.97894057,1,1,0,19.18,The cuisine is Italian
TRACKS,Manhattan,220,WEST   31 STREET,10001,2122446736,Seafood,40.74943622,-73.99284306,1,1,1,47.72,The cuisine is Seafood
ART CAFE + BAR,Brooklyn,884,PACIFIC STREET,11238,7188572522,American,40.68032049,-73.96470683,0,1,1,27.89,The cuisine is American
HAN,Manhattan,854,10 AVENUE,10019,2127078111,Chinese,40.76858335,-73.98893117,0,0,1,42.15,The cuisine is Chinese
TULO HOUSE,Manhattan,217,MULBERRY STREET,10012,6316625028,Coffee/Tea,40.72225224,-73.99615783,0,1,1,15.19,The cuisine is Coffee/Tea
CHRISTOS STEAKHOUSE,Queens,4108,23 AVENUE,11105,7187778400,Steakhouse,40.7704541,-73.90735275,0,1,1,34.49,The cuisine is Steakhouse
LA COMPAGNIE DES VINS SUPERNATURELS,Manhattan,249,CENTRE STREET,10013,2123433660,Mediterranean,40.72038859,-73.99803027,1,1,1,22.14,The cuisine is Mediterranean
JESUS TACO,Manhattan,501,WEST  145 STREET,10031,2122343330,Tex-Mex,40.82540763,-73.94800848,1,1,0,23.32,The cuisine is Tex-Mex
TIA DELI JUICE,Bronx,962,EAST  167 STREET,10459,3474472135,"Juice, Smoothies, Fruit Salads",40.82677912,-73.89167876,0,1,0,42.31,"The cuisine is Juice, Smoothies, Fruit Salads"
BARCLAYS NORTH SUITE STOLI BAR,Brooklyn,620,ATLANTIC AVENUE,11217,9176186310,American,40.6834469,-73.97569131,1,1,1,18.56,The cuisine is American
BOBBA HUBBA,Queens,4036,75TH ST,11373,2123658269,Coffee/Tea,40.74591464,-73.89031664,0,0,1,36.95,The cuisine is Coffee/Tea
JIKU WICKED WINGS KOREAN GRUB,Brooklyn,1219,CHURCH AVENUE,11218,7189752259,Chicken,40.64743357,-73.96818736,0,0,1,19.82,The cuisine is Chicken
CHELSEA PAPAYA,Manhattan,171,WEST   23 STREET,10011,2123529060,American,40.7436833,-73.9946481,1,1,1,42.76,The cuisine is American
KFC,Brooklyn,2160,FLATBUSH AVENUE,11234,3476043940,,40.61730697,-73.93105461,0,0,1,26.4,
"BAVARIA BIERHOUSE, THE CAULDRON",Manhattan,19,SOUTH WILLIAM STREET,10004,2124808142,German,40.70453432,-74.01067945,0,1,1,19.93,The cuisine is German
TASTE OF HONG KONG,Queens,3711,MAIN ST,11354,9292827609,Chinese,40.76132033,-73.83099665,1,1,0,44.25,The cuisine is Chinese
NEW HONG KONG RESTAURANT,Brooklyn,249A,SCHENECTADY AVENUE,11213,7187719876,Chinese,40.6701566,-73.93376468,0,1,0,21.74,The cuisine is Chinese
LEKKA BURGER,Manhattan,81,WARREN STREET,10007,6468526421,Vegan,40.71525267,-74.0103926,0,1,1,23.53,The cuisine is Vegan
PERIDANCE CAPEZIO CENTER CAFE,Manhattan,126,EAST   13 STREET,10003,2125050886,Coffee/Tea,40.7332034,-73.98913913,1,1,0,11.06,The cuisine is Coffee/Tea
LA NOSTRA PIZZERIA AND RESTAURANT,Queens,8407,JAMAICA AVE,11421,7188058190,Pizza,40.69235654,-73.86055061,0,1,1,42.41,The cuisine is Pizza
EL RANCHO RESTAURANT,Brooklyn,1157,FLATBUSH AVENUE,11226,3476279030,Spanish,40.64205295,-73.95715298,1,1,0,30.25,The cuisine is Spanish
METROPOLITAN CLUB,Manhattan,1,EAST   60 STREET,10022,2128387400,Continental,40.76479552,-73.97230783,1,1,0,30.03,The cuisine is Continental
THE FAMOUS JIMBO'S HAMBURGER PALACE,Bronx,1977,JEROME AVENUE,10453,3472251415,Hamburgers,40.8521527,-73.90889045,0,0,0,47.03,The cuisine is Hamburgers
ELYON RESTAURANT,Queens,21221,JAMAICA AVE,11428,2292065060,Caribbean,40.71586679,-73.74605868,0,0,1,44.21,The cuisine is Caribbean
EMPELLON,Manhattan,230,WEST    4 STREET,10014,2123670999,Mexican,40.7341124,-74.00294077,0,0,1,24.52,The cuisine is Mexican
MODHUBON SWEETS & RESTAURANT,Brooklyn,93,CHURCH AVENUE,11218,7189300025,Bangladeshi,40.64264931,-73.97979964,0,1,0,48.34,The cuisine is Bangladeshi
COCORON,Manhattan,37,KENMARE STREET,10012,2129660800,Japanese,40.72073984,-73.99529571,0,0,1,29.28,The cuisine is Japanese
CARIBBEAN COFFEE SHOP,Brooklyn,527,STANLEY AVENUE,11207,7189752301,Caribbean,40.65722138,-73.88886279,0,1,1,14.11,The cuisine is Caribbean
CAFE COSINA,Bronx,1350,JEROME AVENUE,10452,7182933837,American,40.83914709,-73.9184566,0,0,1,17.91,The cuisine is American
BRENNAN & CARR,Brooklyn,3432,NOSTRAND AVENUE,11229,7187691254,American,40.60038588,-73.94189333,0,1,1,22.87,The cuisine is American
IMANI CARRIBEAN KITCHEN & BAR,Brooklyn,271,ADELPHI STREET,11205,7189230100,Caribbean,40.689262,-73.97107727,0,1,0,21.2,The cuisine is Caribbean
DRAGON TOWN CHINESE RESTAURANT,Manhattan,2030,3 AVENUE,10029,2128288277,Chinese,40.79507812,-73.94212002,1,1,1,47.94,The cuisine is Chinese
AMERICAN MUSEUM OF THE MOVING IMAGE,Queens,3601,35 AVENUE,11106,7187776800,Coffee/Tea,40.75619932,-73.92437707,0,0,0,44.65,The cuisine is Coffee/Tea
LA PRECIOSA CHINA RESTAURANT,Manhattan,163,EAST  116 STREET,10029,2123693921,Chinese,40.79835202,-73.94097583,0,1,0,16.34,The cuisine is Chinese
LENWICH 68TH,Manhattan,1269,1 AVENUE,10065,2122880852,Sandwiches,40.76549921,-73.95769057,0,1,1,14.5,The cuisine is Sandwiches
A10TH KITCHEN,Manhattan,162,AVENUE A,10009,9172616888,American,40.72808352,-73.98203945,1,1,0,13.97,The cuisine is American
SAINTS AND SINNERS,Queens,5921,ROOSEVELT AVE,11377,7183963268,American,40.74541742,-73.9052476,1,1,1,10.58,The cuisine is American
NEW FLUSHING BAKERY,Queens,135-45,ROOSEVELT AVENUE,11354,7185396363,Bakery Products/Desserts,40.75923719,-73.8310922,0,1,0,46.42,The cuisine is Bakery Products/Desserts
WAFELS AND DINGES,Manhattan,41,W 40TH ST,10018,9179918310,Bakery Products/Desserts,40.75306938,-73.98388067,1,1,0,27.33,The cuisine is Bakery Products/Desserts
LAS PALMAS BAKERY,Bronx,2269,JEROME AVENUE,10453,3472698022,Bakery Products/Desserts,40.85822007,-73.90400175,1,1,1,34.84,The cuisine is Bakery Products/Desserts
MING'S RESTAURANT,Manhattan,413415,9 AVENUE,,2128681378,Chinese,0,0,1,1,1,24.93,The cuisine is Chinese
LADUREE PARIS,Manhattan,864,MADISON AVENUE,10021,6465583157,French,40.77083782,-73.96613168,1,1,0,31.19,The cuisine is French
BONSIGNOUR,Manhattan,35,JANE STREET,10014,2122299700,American,40.73813617,-74.00447097,0,1,1,27.85,The cuisine is American
LAZZARAS PIZZA CAFE,Manhattan,221,WEST   38 STREET,10018,2129447792,Pizza,40.75386602,-73.98961219,0,0,0,12.74,The cuisine is Pizza
MARCO POLO PIZZA & DELI,Manhattan,1289,MADISON AVENUE,10128,2124273777,Pizza,40.78447862,-73.9561546,0,1,1,35.41,The cuisine is Pizza
FLORIDITA RESTAURANT,Manhattan,2276,12 AVENUE,10027,2126620090,Latin American,40.81779058,-73.96085097,1,1,0,39.57,The cuisine is Latin American
COURT PASTRY SHOP,Brooklyn,298,COURT STREET,11231,7188754820,Bakery Products/Desserts,40.68398735,-73.99512524,1,1,0,16,The cuisine is Bakery Products/Desserts
FURMAN'S COFFEE,Brooklyn,547,NOSTRAND AVENUE,11216,7186383780,Coffee/Tea,40.67875583,-73.9496519,0,1,1,10.16,The cuisine is Coffee/Tea
MELONPANNA TEA & SHOT,Brooklyn,5105,7 AVENUE,11220,3472566022,Bakery Products/Desserts,40.64177257,-74.00659404,0,0,0,23.27,The cuisine is Bakery Products/Desserts
THE GUTTER,Queens,1022,46TH AVE,11101,9293280409,American,40.74672007,-73.95199311,1,1,1,25.7,The cuisine is American
TANDON,Brooklyn,6,METROTECH CTR,11201,6469973782,American,40.69402437,-73.98720543,1,1,0,17.76,The cuisine is American
RED LOBSTER,Manhattan,5,TIMES SQUARE,10036,2127306706,Seafood,40.75570202,-73.98720798,1,1,1,30.91,The cuisine is Seafood
CARRO CAFE,Brooklyn,3472,FULTON STREET,11208,7183489406,Latin American,40.68498951,-73.86744566,0,0,0,49.78,The cuisine is Latin American
FRANKIES CAFE,Manhattan,170,EAST   70 STREET,10021,9178636706,Coffee/Tea,40.76874788,-73.96234204,1,1,0,29.03,The cuisine is Coffee/Tea
NEGRIL BK,Brooklyn,254,5 AVENUE,11215,3033329905,Caribbean,40.67496662,-73.9814806,1,1,1,48.82,The cuisine is Caribbean
DALLAS BBQ,Bronx,281,WEST FORDHAM ROAD,10468,7182202822,Barbecue,40.86175617,-73.91196829,1,1,0,29.51,The cuisine is Barbecue
QUEZADA RESTAURANT,Brooklyn,1212,FLATBUSH AVENUE,11226,7182820622,Latin American,40.64085305,-73.95600071,1,1,0,49.56,The cuisine is Latin American
"BURGER KING, POPEYES",Brooklyn,2343,UTICA AVENUE,11234,7183060022,Hamburgers,40.61431498,-73.92637535,0,0,1,24.43,The cuisine is Hamburgers
COZY ROYALE,Brooklyn,434,HUMBOLDT STREET,11211,7187342792,New American,40.71690508,-73.94306115,0,0,1,49.52,The cuisine is New American
SUNDAYS WELL,Manhattan,360,3 AVENUE,10016,6467073190,American,40.74088505,-73.98165708,1,1,1,14.38,The cuisine is American
ANFORA,Manhattan,34,8 AVENUE,10014,2125182722,Italian,40.73789738,-74.00441683,1,1,0,47.15,The cuisine is Italian
JOE: THE ART OF COFFEE,Manhattan,405,WEST   23 STREET,10011,2122060669,Coffee/Tea,40.74670539,-74.00182615,1,1,1,38.99,The cuisine is Coffee/Tea
THE SPRINGS,Brooklyn,224,FRANKLIN STREET,11222,7183496727,American,40.73331431,-73.95814769,0,1,0,35.22,The cuisine is American
JOHNS CAFE & RESTAURANT,Manhattan,823,SECOND AVENUE,10017,2128674955,American,40.75102757,-73.97133909,1,1,0,47.91,The cuisine is American
LOOSIE ROUGE,Brooklyn,91,SOUTH    6 STREET,11249,7183842904,Creole/Cajun,40.71085066,-73.96491063,1,1,0,45.23,The cuisine is Creole/Cajun
TANNER SMITH'S,Manhattan,204,WEST   55 STREET,10019,9175172283,American,40.76436368,-73.98136179,1,1,0,23.84,The cuisine is American
DONNA'S DUTCH POT,Brooklyn,1073,LIBERTY AVENUE,11208,3474067388,Caribbean,40.67833863,-73.86960047,1,1,1,10.03,The cuisine is Caribbean
POPEYES,Bronx,499,EAST  163 STREET,10451,3475911570,Chicken,40.82435728,-73.90958626,1,1,1,45.17,The cuisine is Chicken
PANDA KITCHEN,Queens,14611,ROCKAWAY BLVD,11436,7183223446,Chinese,40.67346343,-73.79134133,1,1,0,24.85,The cuisine is Chinese
COPPOLA'S,Manhattan,206,WEST   79 STREET,10024,2128773840,Italian,40.78330203,-73.9787385,0,1,1,24.07,The cuisine is Italian
MORGAN CAFE,Manhattan,341,9 AVENUE,10001,2123304174,American,40.75052336,-73.99840112,0,1,0,30.22,The cuisine is American
BLUE NOTE JAZZ,Manhattan,131,WEST    3 STREET,10012,2124750049,American,40.73076382,-74.00079379,0,0,1,16.57,The cuisine is American
GOTHAM PIZZA,Manhattan,144,9 AVENUE,10011,2129898858,Pizza,40.74389198,-74.00320465,1,1,1,27.45,The cuisine is Pizza
HARLEM SHAKE,Manhattan,100,WEST  124 STREET,10027,2122228300,Hamburgers,40.80728612,-73.94645495,0,0,1,33.38,The cuisine is Hamburgers
BROADWAY PIZZA & PASTA,Bronx,192,WEST  231 STREET,10463,7186015000,Pizza,40.87878671,-73.90446375,0,1,1,49.98,The cuisine is Pizza
BRASS RIZ & GRILL EXPRESS,Queens,227-02/08,LINDEN BLVD,,9175570106,Creole,0,0,1,1,0,33.83,The cuisine is Creole
THE CHOCOLATE ROOM,Brooklyn,269,COURT STREET,11231,7182462600,Bakery Products/Desserts,40.68484919,-73.99468529,1,1,1,47.63,The cuisine is Bakery Products/Desserts
CANDLE CAFE,Manhattan,1307,3 AVENUE,10021,2124720970,Vegetarian,40.77154648,-73.95927166,1,1,0,48.68,The cuisine is Vegetarian
BO BO KITCHEN CHINESE RESTAURANT,Brooklyn,1601,CORTELYOU ROAD,11226,7184625363,Chinese,40.64167086,-73.96342656,0,0,0,22.76,The cuisine is Chinese
VEGAN LOVE,Manhattan,263,EAST   10 STREET,10009,7188083623,Vegan,40.72837743,-73.9834934,1,1,0,25.61,The cuisine is Vegan
DAE BAK RESTAURANT,Queens,14606,34 AVENUE,11354,7183580002,Korean,40.7672419,-73.82087323,0,1,1,42.52,The cuisine is Korean
SARAVANA BHAVAN,Manhattan,413,AMSTERDAM AVENUE,10024,2127217755,Vegetarian,40.7836093,-73.97796926,1,1,0,26.91,The cuisine is Vegetarian
MOON & FLOWER HOUSE,Queens,4026,UNION ST,11354,7188867885,Sandwiches,40.75973215,-73.82617812,1,1,0,11.51,The cuisine is Sandwiches
SAN BLAS,Brooklyn,140,MONTAGUE STREET,11201,7186501235,Mexican,40.69458484,-73.99360627,1,1,1,19.2,The cuisine is Mexican
O'NEALS,Queens,,JFK INTERNATIONAL AIRPORT,11430,7186566210,American,40.64831283,-73.7882815,0,1,1,41.51,The cuisine is American
BODY BY BROOKLYN,Brooklyn,275,PARK AVENUE,11205,7189239400,American,40.69600497,-73.96756185,1,1,0,49.45,The cuisine is American
BuBo,Manhattan,515,3 AVENUE,10016,2125323300,American,40.74604728,-73.97786985,0,1,0,18.56,The cuisine is American
IPIZZA NY,Manhattan,351,WEST  125 STREET,10027,9172658973,Pizza,40.81085707,-73.9527956,0,0,1,45.45,The cuisine is Pizza
CAFE VIA ESPRESSO,Queens,2409,STEINWAY STREET,11103,7185453290,Coffee/Tea,40.76868117,-73.91106289,0,0,0,49.61,The cuisine is Coffee/Tea
OCEANIC BOIL,Queens,8420,37TH AVE,11372,6467249149,Seafood,40.74995509,-73.88217488,1,1,1,43.32,The cuisine is Seafood
POP'S RESTAURANT,Queens,8522,JAMAICA AVE,11421,7188462037,Spanish,40.6925191,-73.85881215,1,1,1,14.82,The cuisine is Spanish
EL CHARRO BAKERY II,Brooklyn,3379,FULTON STREET,11208,9176764185,Bakery Products/Desserts,40.68402453,-73.87088732,1,1,1,33.85,The cuisine is Bakery Products/Desserts
BERGER'S ON THE GO,Manhattan,2,EAST   39 STREET,10016,2127194173,Sandwiches,40.75146342,-73.98204034,0,0,1,39.25,The cuisine is Sandwiches
DIVINE FLAVOR HOUSE,Queens,4341,MAIN ST,11355,7186736696,Chinese,40.75161309,-73.82615247,1,1,1,38.25,The cuisine is Chinese
BUTTERFIELD CATERING,Manhattan,346,EAST   92 STREET,10128,2127728782,American,40.7811979,-73.94783009,1,1,0,27.14,The cuisine is American
SUNSHINE RESTAURANT & GRILL,Queens,6915,NORTHERN BLVD,11377,7186396900,Indian,40.75430906,-73.8972581,0,1,1,42.98,The cuisine is Indian
ANNIE'S CARIBBEAN RESTAURANT,Queens,23112,MERRICK BLVD,11413,7183419033,Caribbean,40.6756428,-73.73909226,0,0,0,32.6,The cuisine is Caribbean
La Mina Bar Restaurant,Manhattan,3859,10 AVENUE,10034,6463422879,Spanish,40.86405334,-73.9192141,0,0,0,27.2,The cuisine is Spanish
PEDRO'S MEXICAN BAR & RESTAURANT,Brooklyn,73,JAY STREET,11201,7187972851,Mexican,40.70251664,-73.98667363,0,1,1,25.72,The cuisine is Mexican
SIDO GRILL,Manhattan,2288,FREDERICK DOUGLASS BOULEVARD,,6463295650,Mediterranean,0,0,0,0,0,12.31,The cuisine is Mediterranean
NEW KING WOK RESTAURANT,Manhattan,2025,7 AVENUE,10027,2122222868,Chinese,40.80659331,-73.9500461,0,1,1,35.82,The cuisine is Chinese
CARIDAD & LOUIE'S RESTAURANT,Bronx,1660,EAST GUN HILL ROAD,10469,7188623939,Latin American,40.86601748,-73.8377147,1,1,1,20.91,The cuisine is Latin American
BOSTON MARKET,Staten Island,854,ARTHUR KILL ROAD,10312,7182278200,American,40.56090183,-74.16899824,1,1,0,17.39,The cuisine is American
KATI THAI CUISINE,Manhattan,347,EAST   14 STREET,10003,2125332046,Thai,40.73154757,-73.98302715,0,0,1,26.27,The cuisine is Thai
SWEET CHICK,Brooklyn,164,BEDFORD AVENUE,11249,3477254793,American,40.71830284,-73.95723003,0,1,1,15.09,The cuisine is American
QUICKLY,Queens,8306,BROADWAY,11373,7188033668,Chinese,40.74090587,-73.87978034,1,1,1,49.98,The cuisine is Chinese
TEN FULL RESTAURANT,Queens,3949,48TH AVE,11104,7183618838,Chinese,40.74002524,-73.92561522,1,1,1,49.06,The cuisine is Chinese
PORTOFINO RESTAURANT,Bronx,555,CITY ISLAND AVENUE,10464,7188851220,Italian,40.85359201,-73.79020293,1,1,1,23.93,The cuisine is Italian
EL MACO RESTAURANT,Bronx,1481,JEROME AVENUE,10452,9292599836,Latin American,40.84170663,-73.91664275,0,0,1,10.1,The cuisine is Latin American
BEACON THEATRE,Manhattan,2124,BROADWAY,10023,2123248015,American,40.78055775,-73.98142946,0,1,0,15.04,The cuisine is American
ENERGY FUEL,Queens,6504,FRESH POND ROAD,11385,7184563835,American,40.70955704,-73.89883146,1,1,0,42.97,The cuisine is American
PERSEPOLIS,Manhattan,1407,2 AVENUE,10021,2125351100,Mediterranean,40.7697234,-73.95769871,1,1,1,36.48,The cuisine is Mediterranean
TONY'S DI NAPOLI,Manhattan,1081,3 AVENUE,10065,2128886333,Italian,40.76438166,-73.96449967,0,1,0,20.32,The cuisine is Italian
NEW YORK KIMCHI,Manhattan,18,WEST   48 STREET,10036,2122213044,Korean,40.75761939,-73.97894165,0,1,1,14.57,The cuisine is Korean
LATINO'S BAR & GRILL RESTAURANT,Manhattan,3864,BROADWAY,10032,2127401313,Latin American,40.83673824,-73.94290399,1,1,1,34.61,The cuisine is Latin American
WOLFNIGHTS,Manhattan,40,WEST   55 STREET,10019,6466698070,Other,40.76223281,-73.97629778,1,1,1,16.3,The cuisine is Other
PIAXTLA ES MEXICO DELI,Brooklyn,505,51 STREET,11220,7186334816,Mexican,40.64430846,-74.01050042,0,1,0,48.43,The cuisine is Mexican
STARBUCKS COFFEE,Manhattan,400,EAST   90 STREET,10128,2129870891,Coffee/Tea,40.77927902,-73.94717444,1,1,1,15.85,The cuisine is Coffee/Tea
PRIMO CAPPUCCINO,Manhattan,0,PENN STATION,10121,2125631077,Sandwiches/Salads/Mixed Buffet,40.75005923,-73.99210672,0,0,1,23.06,The cuisine is Sandwiches/Salads/Mixed Buffet
ANTOJITOS DE SAN CECILIO,Queens,9004,JAMAICA AVE,11421,7188463024,Spanish,40.69285409,-73.85452382,0,1,1,23.61,The cuisine is Spanish
MI ROMANCE ECUATORIANO,Bronx,524A,BROOK AVENUE,10455,7182923942,Spanish,40.81456828,-73.91515232,0,1,1,36.97,The cuisine is Spanish
MANJARES MEXICO,Queens,4408,BROADWAY,11103,7184298933,Mexican,40.75738172,-73.91564776,0,0,1,30.29,The cuisine is Mexican
EL CERITO RESTAURANT,Bronx,11841186,ELDER AVENUE,,7183288553,Mexican,0,0,0,0,0,21.12,The cuisine is Mexican
LA CAVERNA,Manhattan,122124,RIVINGTON STREET,,2124752126,American,0,0,1,1,1,15.04,The cuisine is American
KAPPO MASA,Manhattan,976,MADISON AVENUE,10075,2128239807,Japanese,40.77451497,-73.9634472,0,0,0,42.61,The cuisine is Japanese
LE VEAU D'OR,Manhattan,129,EAST   60 STREET,10022,2128388133,French,40.76307076,-73.96822577,0,1,0,44.93,The cuisine is French
THE MARKET HOTEL EVENT SPACE,Brooklyn,1140,MYRTLE AVENUE,11221,9177477164,Other,40.69702575,-73.9347224,0,1,0,28.5,The cuisine is Other
GROUND CENTRAL COFFEE COMPANY,Manhattan,2,COENTIES SLIP,10004,2123440237,Coffee/Tea,40.70362856,-74.01058914,0,1,0,41.89,The cuisine is Coffee/Tea
K-TOWN BBQ,Manhattan,2,WEST   32 STREET,10001,2126957272,Korean,40.74730839,-73.98590313,0,0,0,14.35,The cuisine is Korean
SEAMORE'S,Brooklyn,66,WATER STREET,11201,7186636550,Seafood,40.70325819,-73.99150277,1,1,0,23.57,The cuisine is Seafood
VILLA MONTE RESTAURANT & PIZZERIA,Staten Island,7001,AMBOY ROAD,10307,7189849886,Pizza,40.51584224,-74.23350214,1,1,0,13.59,The cuisine is Pizza
JESSIE'S EXPRESS CAFE,Manhattan,411,8 AVENUE,10001,2122551266,Sandwiches/Salads/Mixed Buffet,40.7499798,-73.99508069,0,0,0,38.42,The cuisine is Sandwiches/Salads/Mixed Buffet
INTELLIGENTSIA COFFEE,Manhattan,180,10 AVENUE,10011,2129339736,Coffee/Tea,40.74620849,-74.0052294,1,1,1,44.4,The cuisine is Coffee/Tea
MEE NOODLE SHOP,Manhattan,223,1 AVENUE,10003,2122607838,Chinese,40.73086411,-73.98292269,1,1,0,45.87,The cuisine is Chinese
BRAVI RAGAZZI BK,Brooklyn,570,PUTNAM AVENUE,11221,3477708048,Pizza,40.68527776,-73.93905353,1,1,0,40.54,The cuisine is Pizza
MUTUAL OF AMERICA,Manhattan,320,PARK AVENUE,10022,2122241059,American,40.75744266,-73.97379805,1,1,1,21.51,The cuisine is American
EL MALECON RESTAURANT,Manhattan,764,AMSTERDAM AVENUE,10025,2128645648,Latin American,40.79506125,-73.96964065,1,1,1,42.84,The cuisine is Latin American
THE GRUMPY CAT BAR,Brooklyn,480,62 STREET,11220,9293377622,American,40.63869445,-74.01796162,1,1,0,31.9,The cuisine is American
COOK EATERY,Manhattan,115,WEST   45 STREET,10036,2127309495,American,40.75707117,-73.98341046,1,1,1,20.51,The cuisine is American
THE TAP HOUSE,Queens,7207,AUSTIN STREET,11375,7189970500,Irish,40.71922074,-73.84232678,0,1,1,20.92,The cuisine is Irish
AREPPAS,Manhattan,954,3 AVENUE,10022,2123553656,Latin American,40.76034772,-73.96738601,0,0,0,41.9,The cuisine is Latin American
ONE EAST OCEAN PALACE,Queens,11309,QUEENS BLVD,11375,7182681668,Chinese,40.71728652,-73.83512017,1,1,1,12.84,The cuisine is Chinese
FRESCO'S CANTINA,Queens,1214,31ST AVE,11106,3478087338,Mexican,40.76871542,-73.93322584,0,1,1,23.02,The cuisine is Mexican
JADE GARDEN,Queens,9627,LINDEN BLVD,11417,7188430872,Chinese,40.67397219,-73.83969432,1,1,0,11.9,The cuisine is Chinese
LA FLOR DEL PARAISO RESTAURANT,Queens,1715,CORNELIA STREET,11385,7183812970,Spanish,40.70034574,-73.90545256,1,1,1,20.82,The cuisine is Spanish
BRYANT PARK GRILL,Manhattan,25,WEST   40 STREET,10018,2122068805,American,40.75266301,-73.98292069,0,1,0,32.47,The cuisine is American
FULTON CAFE,Bronx,800,FOOD CENTER DRIVE,10474,7185892233,Coffee/Tea,40.80524765,-73.87641271,1,1,0,17.48,The cuisine is Coffee/Tea
AKDENIZ MEDITERRANEAN CUISINE,Manhattan,19,WEST   46 STREET,10036,2125752307,Turkish,40.75640912,-73.97992021,1,1,1,27.38,The cuisine is Turkish
PERRY'S RESTAURANT,Brooklyn,3482,NOSTRAND AVENUE,11229,7189349800,American,40.59894199,-73.94161732,1,1,1,32.64,The cuisine is American
COLD STONE CREAMERY,Brooklyn,139,FLATBUSH AVENUE,11217,7187892903,Frozen Desserts,40.68442994,-73.97772452,1,1,1,31.02,The cuisine is Frozen Desserts
KEG AND LANTERN TAVERN,Brooklyn,97,NASSAU AVENUE,11222,7183895050,Irish,40.72395698,-73.95023455,0,0,1,25.33,The cuisine is Irish
SQUARE MEALS,Brooklyn,234,STARR STREET,11237,6463383535,Sandwiches,40.70551336,-73.92271437,0,0,1,48.98,The cuisine is Sandwiches
"DONUT CONNECTION, MIKE'S PLACE",Brooklyn,6830,3 AVENUE,11220,7182388921,Coffee/Tea,40.6362199,-74.02585512,1,1,0,38.21,The cuisine is Coffee/Tea
YUMMY LOTUS,Brooklyn,587,SUTTER AVENUE,11207,3478671167,Chinese,40.66906475,-73.8972998,0,0,1,40.41,The cuisine is Chinese
MING WONG,Bronx,29,WEST BURNSIDE AVENUE,10453,7185629793,Chinese,40.8538132,-73.90880864,0,1,0,40.25,The cuisine is Chinese
REGINA'S GROCERY,Manhattan,27,ORCHARD STREET,10002,9172615792,Italian,40.71551084,-73.99158056,1,1,1,11.49,The cuisine is Italian
THE FREAKIN RICAN RESTAURANT,Queens,4306,34TH AVE,11101,9293491080,Latin American,40.75547055,-73.91832121,0,1,0,46.66,The cuisine is Latin American
FAITHY'S KITCHEN,Bronx,3907,DYRE AVENUE,10466,7186550780,Caribbean,40.88943997,-73.8312773,0,0,0,46.29,The cuisine is Caribbean
LI WAN RESTAURANT,Queens,6428,METROPOLITAN AVE,11379,3479095849,Chinese,40.71250528,-73.8961649,0,1,0,29.61,The cuisine is Chinese
SUZUKI SHOKUDO,Queens,3801,31ST ST,11101,7184723778,Japanese,40.75361312,-73.93214378,0,0,0,25.83,The cuisine is Japanese
"SAL'S PIZZA , MAMMA MARIA RESTAURANT",Brooklyn,305,COURT STREET,11231,7188526890,Pizza,40.68363053,-73.9952731,0,1,1,43.27,The cuisine is Pizza
DONBURI-YA,Manhattan,253,WEST   55 STREET,10019,2125812240,Japanese,40.76501167,-73.98285975,1,1,0,33.9,The cuisine is Japanese
MINI PICANTERIA EL GUAYAQUILENO,Queens,3317,JUNCTION BLVD,11372,9292963578,Latin American,40.75634104,-73.873396,1,1,0,44.93,The cuisine is Latin American
LOS CAFETALES RESTAURANT,Queens,7817,ROOSEVELT AVE,11372,6462798549,Spanish,40.74727047,-73.88740191,0,0,0,44.23,The cuisine is Spanish
CHAPATI HOUSE,Manhattan,3153,BROADWAY,10027,2127497200,Indian,40.81446063,-73.95919472,0,0,1,34.2,The cuisine is Indian
E & L BAKERY & COFFEE SHOP,Bronx,4202,WHITE PLAINS ROAD,10466,7183248152,Bakery Products/Desserts,40.8935648,-73.85726222,0,0,1,31.31,The cuisine is Bakery Products/Desserts
DA RAFFAELE,Manhattan,883,1 AVENUE,10022,6468959849,Italian,40.75351848,-73.96642566,0,1,1,27.93,The cuisine is Italian
ASIA PALACE,Brooklyn,4813,NEW UTRECHT AVENUE,11219,7189723434,Jewish/Kosher,40.63724649,-73.99465307,0,1,1,45.52,The cuisine is Jewish/Kosher
"GARDEN MARKET, DUNKIN",Manhattan,4,PENN PLZ,10121,2124656273,Hotdogs/Pretzels,40.75065484,-73.99194424,0,1,1,11.36,The cuisine is Hotdogs/Pretzels
SAMS JOE'S PIZZA AND PASTA,Queens,9508,JAMAICA AVE,11421,7188052220,Pizza,40.69425397,-73.85029074,0,0,1,36.43,The cuisine is Pizza
TEXAS CHICKEN & BURGERS,Bronx,3275,WESTCHESTER AVENUE,10461,6467758513,Chicken,40.85266075,-73.82770196,0,0,1,47.88,The cuisine is Chicken
EL MATE,Brooklyn,550,COURT STREET,11231,7186252829,Brazilian,40.67504223,-73.999434,0,1,1,24.4,The cuisine is Brazilian
EL TEQUILA,Queens,8216,BAXTER AVENUE,11373,9174506313,Mexican,40.74657193,-73.88328163,0,1,1,47.09,The cuisine is Mexican
FARINELLA,Manhattan,1132,LEXINGTON AVENUE,10075,2123272702,Pizza,40.77466447,-73.9591181,1,1,0,18.71,The cuisine is Pizza
HAPPY FUN HIDEAWAY,Brooklyn,1211,MYRTLE AVENUE,11221,9178608282,American,40.69738901,-73.93164225,0,0,1,17.57,The cuisine is American
BEST PIZZA,Brooklyn,24,AVENUE O,11204,7185133220,Pizza,40.61016276,-73.9843367,1,1,1,33.73,The cuisine is Pizza
MISO-YA,Manhattan,129,2 AVENUE,10003,2126774825,Japanese,40.72842738,-73.98780134,0,0,0,38.11,The cuisine is Japanese
SERAFINA 105,Manhattan,2735-2737,BROADWAY,10025,2123010664,Italian,40.80029231,-73.96804901,0,1,0,19.32,The cuisine is Italian
UPI JAYA RESTAURANT,Queens,7604,WOODSIDE AVE,11373,7184581807,Indonesian,40.74341261,-73.88871124,0,1,0,12.05,The cuisine is Indonesian
HAWKERS,Manhattan,225,EAST   14 STREET,10003,9176893481,Asian/Asian Fusion,40.73298903,-73.98645462,0,0,0,16.57,The cuisine is Asian/Asian Fusion
PEACHES,Brooklyn,393-403,LEWIS AVENUE,11233,7189424162,Soul Food,40.68191309,-73.934831,1,1,1,17,The cuisine is Soul Food
DUDLEYS,Manhattan,85,ORCHARD STREET,10002,2129257355,Australian,40.71786576,-73.99037538,0,1,0,34.17,The cuisine is Australian
SZECHUAN GOURMET,Manhattan,21,WEST   39 STREET,10018,2129210233,Chinese,40.75197687,-73.98320961,1,1,0,49.29,The cuisine is Chinese
FREEDOM DOVE,Queens,9053,CORONA AVE,11373,7185929773,Chinese,40.74224185,-73.87399669,1,1,0,29.96,The cuisine is Chinese
CHEF QUANG GUYANESE CHINESE EXPRESS,Brooklyn,3360,ATLANTIC AVENUE,11208,3473053470,Caribbean,40.68145975,-73.87230565,1,1,0,34.32,The cuisine is Caribbean
THE SOUTHERN COMFORT,Brooklyn,377,MARCUS GARVEY BOULEVARD,11221,7184847085,American,40.684281,-73.93829006,1,1,0,33.66,The cuisine is American
THE MAGICIAN,Manhattan,118,RIVINGTON STREET,10002,2126737851,American,40.71977308,-73.98734117,1,1,0,48.87,The cuisine is American
ENTWINE,Manhattan,765,WASHINGTON STREET,10014,2127278765,American,40.73738939,-74.00820571,1,1,0,27.63,The cuisine is American
THE WAYLON,Manhattan,736,10 AVENUE,10019,2122650010,Tex-Mex,40.76482875,-73.99166455,0,1,0,39.4,The cuisine is Tex-Mex
AFGHAN KEBOB HOUSE,Queens,25911,HILLSIDE AVENUE,11004,7183431160,Afghan,40.7371826,-73.70902252,1,1,1,33.41,The cuisine is Afghan
MARGARITA SALOON,Manhattan,709,8 AVENUE,10036,2125822012,Mexican,40.75887785,-73.98860431,0,1,0,39.11,The cuisine is Mexican
BARD BASEMENT FACULTY KITCHEN,Manhattan,50,HAVEN AVENUE,10032,6464262582,American,40.84329542,-73.94291641,0,1,0,35.3,The cuisine is American
LA NORTENA,Brooklyn,255A,GRAHAM AVENUE,11206,7183883045,Mexican,40.71116067,-73.9438416,1,1,1,47.99,The cuisine is Mexican
BELLA NAPOLI,Manhattan,130,MADISON AVENUE,10016,2126834510,Pizza,40.74570252,-73.98446711,0,1,1,31.66,The cuisine is Pizza
KU SHAN RESTUARANT,Queens,13538,39TH AVE,11354,7189395468,Chinese,40.75991309,-73.83155613,1,1,1,45.22,The cuisine is Chinese
TAKE A BREAK & I'LL BAKE CAFE & CREPERIE,Brooklyn,489,COURT STREET,11231,7188558110,Coffee/Tea,40.6761566,-73.99887158,0,0,0,32.11,The cuisine is Coffee/Tea
JAMROCK BISTRO,Brooklyn,1009,RUTLAND ROAD,11212,3473841770,Caribbean,40.66276032,-73.92625319,0,1,0,26.9,The cuisine is Caribbean
UTICA ROTI SHOP,Brooklyn,337,UTICA AVENUE,11213,6464042762,Caribbean,40.66649363,-73.93133159,1,1,0,26.52,The cuisine is Caribbean
KARAOKE BOHO,Manhattan,152,ORCHARD STREET,10002,2127770102,Korean,40.72072018,-73.98888864,0,1,1,46.66,The cuisine is Korean
RESTAURANT DELICES DES SAVEURS,Bronx,624,MORRIS AVENUE,10451,3475900333,African,40.81909371,-73.92197137,0,1,0,31.78,The cuisine is African
Sandz Bar and Grill,Queens,23432,MERRICK BLVD,11422,2678085163,Caribbean,40.67430655,-73.73570152,1,1,0,26.32,The cuisine is Caribbean
BENITO ONE,Manhattan,174,MULBERRY STREET,10013,2122269171,Italian,40.7202376,-73.99692636,0,1,0,16.81,The cuisine is Italian
JOHNNY UTAHS,Manhattan,25,WEST   51 STREET,10019,2122658824,American,40.75985901,-73.97838504,1,1,0,41.19,The cuisine is American
16 HANDLES,Manhattan,178,8 AVENUE,10011,9146564534,Frozen Desserts,40.74291764,-74.00020209,1,1,1,10.25,The cuisine is Frozen Desserts
BOZU,Brooklyn,296,GRAND STREET,11211,7183847770,Japanese,40.71297808,-73.95747154,1,1,1,22.43,The cuisine is Japanese
FLAMING GRILL AND MODERN BUFFET,Brooklyn,3839,NOSTRAND AVENUE,11235,7186486888,Chinese/Japanese,40.59027581,-73.93992188,1,1,0,46.11,The cuisine is Chinese/Japanese
LIBERTY GRANT CAFE,Brooklyn,1170,LIBERTY AVENUE,11208,7182771223,Coffee/Tea,40.67884498,-73.86597613,0,1,1,13,The cuisine is Coffee/Tea
NUEVO JARDIN DE CHINA RESTAURANT,Queens,3205,BROADWAY,11106,7187260819,Chinese,40.76153243,-73.92443958,1,1,1,33.76,The cuisine is Chinese
KASSIM'S BAKERY & RESTAURANT,Queens,169-28,JAMAICA AVENUE,11432,7182063595,Caribbean,40.70695907,-73.79042815,1,1,0,17.6,The cuisine is Caribbean
GLAZE,Manhattan,643,LEXINGTON AVENUE,10022,2129353400,Japanese,40.75922866,-73.9703501,1,1,1,16.92,The cuisine is Japanese
QUICK PIZZA,Queens,1340,BEACH CHANNEL DR,11691,3479264808,Pizza,40.6062259,-73.75474972,1,1,1,14.12,The cuisine is Pizza
DROM,Manhattan,85,AVENUE A,10009,2127771157,Mediterranean,40.72516615,-73.98419051,0,0,0,15.02,The cuisine is Mediterranean
THE USUAL,Manhattan,30,KENMARE STREET,10012,2129252555,American,40.72067945,-73.99517305,0,0,0,47.02,The cuisine is American
FREDDY'S SOUL CARIBBEAN RESTAURANT,Manhattan,1980,ADAM CLAYTON POWELL JR BOULEVARD,,2126348101,Caribbean,0,0,0,0,0,20.47,The cuisine is Caribbean
BURGER & LOBSTER,Manhattan,39,WEST   19 STREET,10011,6468337532,Seafood,40.73965937,-73.99272503,0,1,1,16.03,The cuisine is Seafood
KETOLAND & SERIE 54,Bronx,2867,WEBSTER AVENUE,10458,9175693730,Latin American,40.86703145,-73.8840275,1,1,1,39.55,The cuisine is Latin American
BAR BAYEUX,Brooklyn,1066,NOSTRAND AVENUE,11225,3475337845,Other,40.6620269,-73.95078555,0,0,1,32.85,The cuisine is Other
PIO PIO,Manhattan,210,EAST   34 STREET,10016,2124810034,Peruvian,40.74552299,-73.97767875,1,1,1,14.78,The cuisine is Peruvian
SUMO SUSHI,Brooklyn,139,HAVEMEYER STREET,11211,7187828400,Japanese,40.71198715,-73.95728099,1,1,1,44.26,The cuisine is Japanese
LA GATA GOLOSA,Queens,8901,37TH AVE,11372,3479353032,Bakery Products/Desserts,40.75044718,-73.87766611,1,1,1,29.25,The cuisine is Bakery Products/Desserts
E.J LUNCHEONETTE,Manhattan,1271,THIRD AVENUE,10021,2124720600,American,40.77056686,-73.95999432,1,1,1,21.79,The cuisine is American
LA NUEVA CARICIA RESTAURANT,Manhattan,1693,AMSTERDAM AVENUE,10031,2124913983,Mexican,40.82439765,-73.94820077,0,0,1,43.11,The cuisine is Mexican
HUA XIA RESTAURANT,Manhattan,49,DIVISION STREET,10002,2129651926,Chinese,40.71416338,-73.99533946,0,1,0,16.22,The cuisine is Chinese
FINESTRA,Manhattan,1370,YORK AVENUE,10021,2127178595,Italian,40.76761915,-73.95316933,1,1,1,43.51,The cuisine is Italian
VINNY'S PIZZA,Queens,97-01,57 AVENUE,11368,7186994433,Pizza,40.73720193,-73.86392054,1,1,1,15.27,The cuisine is Pizza
EMPHASIS,Brooklyn,6820,4 AVENUE,11220,7187481319,American,40.6351088,-74.02332903,1,1,1,16.05,The cuisine is American
HERBALIFE,Bronx,624,MELROSE AVENUE,10455,3478938401,Other,40.81789072,-73.91692921,1,1,0,38.86,The cuisine is Other
AL VOLO,Queens,2807,JACKSON AVE,11101,9295107004,Italian,40.7484265,-73.93876816,0,0,1,45.79,The cuisine is Italian
COUSIN JOHN'S CAFE AND BAKERY,Brooklyn,70,7 AVENUE,11217,7186227333,Bakery Products/Desserts,40.67535512,-73.97486149,0,1,1,42.21,The cuisine is Bakery Products/Desserts
NEW SHANGHAI TAN RESTAURANT,Queens,13520,40TH RD,11354,7186610900,Chinese,40.75884874,-73.83011858,0,0,0,35.4,The cuisine is Chinese
CAFE PANINO MUCHO GUSTO,Manhattan,551,HUDSON STREET,10014,2122292799,Coffee/Tea,40.73523488,-74.00606207,1,1,1,25.43,The cuisine is Coffee/Tea
ITALIANA CREMOSA PIZZERIA & RESTAURANT,Queens,11011,101ST AVE,11419,7184411137,Italian,40.68785181,-73.83340475,0,0,1,15.13,The cuisine is Italian
FROZEN D LITE,Bronx,200,BAYCHESTER AVENUE,10475,2124330748,Frozen Desserts,40.86590541,-73.83042975,0,1,0,38.04,The cuisine is Frozen Desserts
JKJ 41,Queens,14908,41ST AVE,11355,7183580468,Chinese,40.7621501,-73.81551191,0,1,1,35.58,The cuisine is Chinese
PAN FINO,Queens,85-01,NORTHERN BOULEVARD,11372,7182055596,Bakery Products/Desserts,40.75586759,-73.88244231,0,0,0,29.86,The cuisine is Bakery Products/Desserts
HOLY SCHNITZEL,Manhattan,654,AMSTERDAM AVENUE,10025,2123624659,Jewish/Kosher,40.79140042,-73.97231117,0,0,0,39.84,The cuisine is Jewish/Kosher
INWOOD LOCAL WINE BAR & BEER GARDEN,Manhattan,4957,BROADWAY,10034,2125448900,American,40.8679352,-73.92038444,0,0,1,15.29,The cuisine is American
DONATO'S PIZZERIA RESTAURANT,Queens,50-22,39 AVENUE,11377,7185074591,Pizza,40.74883261,-73.9130745,0,0,1,35.64,The cuisine is Pizza
TOMMY'S,Manhattan,3750,BROADWAY,10032,2123681837,American,40.83327012,-73.94544019,0,1,1,37.25,The cuisine is American
BASIK,Brooklyn,323,GRAHAM AVENUE,11211,3478897597,American,40.71397154,-73.94430455,0,1,1,18.36,The cuisine is American
LA FINCA BAR & GRILL,Bronx,960,EAST  165 STREET,10459,3472770837,Spanish,40.82393016,-73.89472212,1,1,1,13.56,The cuisine is Spanish
MIRCH,Queens,17227,HILLSIDE AVE,11432,7182628100,Indian,40.71213308,-73.788987,0,1,0,41.54,The cuisine is Indian
EL GRAN CANARIO II RESTAURANT,Queens,11117,JAMAICA AVENUE,11418,7184411113,Spanish,40.69700528,-73.83697007,0,1,0,19.48,The cuisine is Spanish
SHAKING CRAB,Manhattan,2869,BROADWAY,10025,6172564211,Seafood,40.80511424,-73.96601665,0,0,1,30.38,The cuisine is Seafood
BROOKLYN BREW CAFE,Brooklyn,310,79TH ST,11209,7188656544,Coffee/Tea,40.62845152,-74.02856124,1,1,0,21.48,The cuisine is Coffee/Tea
HARBOR EATS,Staten Island,1000,RICHMOND TER,10310,9178373872,American,40.64522454,-74.10467411,1,1,1,17.26,The cuisine is American
NEW OCEAN,Manhattan,393,LENOX AVENUE,10027,2122899293,Chinese,40.81080336,-73.94328035,1,1,0,27.2,The cuisine is Chinese
LA NACIONAL,Manhattan,239,WEST   14 STREET,10011,9172165259,Spanish,40.7390585,-74.00087328,1,1,0,23.61,The cuisine is Spanish
EL REY V,Brooklyn,1310,BROADWAY,11221,7184553290,Spanish,40.69054143,-73.92391815,0,1,0,19.92,The cuisine is Spanish
CITY CATERING,Manhattan,333,EAST   23 STREET,10010,2128084200,American,40.73748125,-73.97994398,0,1,1,30.7,The cuisine is American
LEO'S PIZZA,Brooklyn,8502,3 AVENUE,11209,7189211900,Pizza,40.62418006,-74.03077485,0,0,1,34.77,The cuisine is Pizza
VILLA TAPIA RESTAURANT,Bronx,245,BROOK AVENUE,10454,9178011415,Latin American,40.80788488,-73.91902967,0,1,0,13.87,The cuisine is Latin American
FINN'S CORNER,Brooklyn,660,WASHINGTON AVENUE,11238,3476639316,American,40.67835772,-73.96388226,1,1,1,34.66,The cuisine is American
SHEAS EMERALD,Bronx,2960,JEROME AVENUE,10468,7183649924,Bottled Beverages,40.87282557,-73.88960388,1,1,1,42.22,The cuisine is Bottled Beverages
Lucky's Cocktail Lounge,Brooklyn,334,MARCUS GARVEY BOULEVARD,11221,3475293536,American,40.68571394,-73.93859881,1,1,1,23.09,The cuisine is American
COCINA MARAVILLA,Bronx,531,EAST  138 STREET,10454,7189752146,Mexican,40.80709926,-73.91815285,1,1,0,28.26,The cuisine is Mexican
GRASS ROOTS JUICERY,Brooklyn,336A,GRAHAM AVENUE,11211,7184862838,"Juice, Smoothies, Fruit Salads",40.71422132,-73.94432599,0,0,1,39.92,"The cuisine is Juice, Smoothies, Fruit Salads"
KINGSBRIDGE DONUT SHOP,Bronx,249,WEST  231 STREET,10463,3473464171,American,40.87975174,-73.90645491,1,1,0,47.44,The cuisine is American
DIRTY FRENCH,Manhattan,180,LUDLOW STREET,10002,2122543000,French,40.72180422,-73.98746705,0,0,1,19.68,The cuisine is French
GRINI'S GRILL & RESTAURANT,Manhattan,100,WEST  143 STREET,10030,2126946274,Latin American,40.8191937,-73.93733349,0,1,0,20.3,The cuisine is Latin American
KIDS 'N' ACTION,Brooklyn,1149,MCDONALD AVENUE,11230,7183771818,Jewish/Kosher,40.62507924,-73.97606208,0,0,0,37.74,The cuisine is Jewish/Kosher
JOE'S PIZZA & PASTA,Queens,5607,MARATHON PKWY,11362,7182291300,Pizza,40.76018948,-73.7316125,1,1,1,38.52,The cuisine is Pizza
DELICIAS MEXICANOS,Queens,10214,ROOSEVELT AVE,11368,7186724485,Mexican,40.74974264,-73.86381903,1,1,0,36.08,The cuisine is Mexican
YAMATO JAPANESE CUISINE,Queens,3323,FRANCIS LEWIS BOULEVARD,11358,7183211893,Japanese,40.766789,-73.79009475,0,1,1,34.07,The cuisine is Japanese
LUZZO'S LA PIZZA NAPOLETANA,Manhattan,211,1 AVENUE,10003,2124737447,Italian,40.7304195,-73.98324754,0,0,1,15.41,The cuisine is Italian
FLUSHING TEA HOUSE,Queens,3639,PRINCE ST,11354,9172852523,Coffee/Tea,40.76136424,-73.83286642,1,1,0,16.62,The cuisine is Coffee/Tea
BALTHAZAR RESTAURANT,Manhattan,80,SPRING STREET,10012,2129651785,French,40.72270243,-73.99810957,0,0,1,26.45,The cuisine is French
SPORTS CLUB OF GLENDALE,Queens,7403,MYRTLE AVE,11385,9174050389,Coffee/Tea,40.70247048,-73.87430658,1,1,0,44.3,The cuisine is Coffee/Tea
ONE UP BISTRO,Manhattan,1404,MADISON AVENUE,10029,9174920697,Sandwiches,40.78811712,-73.95351598,0,0,0,17.65,The cuisine is Sandwiches
HABANERO BLUES,Manhattan,29,WEST   36 STREET,10018,646259399_,Tex-Mex,40.75046755,-73.98538634,1,1,1,31.22,The cuisine is Tex-Mex
MOON PALACE KITCHEN,Queens,6312,FLUSHING AVE,11378,7188942392,Chinese,40.72224344,-73.90208428,1,1,0,40.28,The cuisine is Chinese
CAFE PHIL,Brooklyn,232,TAAFFE PLACE,11205,3475297500,Coffee/Tea,40.69167671,-73.95968484,1,1,1,38.55,The cuisine is Coffee/Tea
VIVA KTV,Queens,3720,PRINCE ST,11354,7183210000,Chinese,40.76043362,-73.8327713,1,1,0,34.92,The cuisine is Chinese
NUTRICION FAMILIAR (Herbalife),Queens,8911,37TH AVE,11372,9294946100,"Juice, Smoothies, Fruit Salads",40.75045534,-73.87760113,1,1,1,17.32,"The cuisine is Juice, Smoothies, Fruit Salads"
HAAGEN-DAZS ICE CREAM,Brooklyn,120,MONTAGUE STREET,11201,7187973700,Frozen Desserts,40.69488682,-73.99469891,1,1,0,22.09,The cuisine is Frozen Desserts
SUPREMA,Manhattan,305,BLEECKER STREET,10014,6469644994,American,40.73259452,-74.0037706,0,0,1,27.04,The cuisine is American
Memphis Seoul,Manhattan,42,WEST   42 STREET,10036,6465447597,Soul Food,40.75406824,-73.98232117,1,1,0,47.42,The cuisine is Soul Food
NICKY'S COFFEE SHOP,Bronx,3140,BAINBRIDGE AVENUE,10467,7182319516,American,40.87462408,-73.87938215,0,0,0,20.63,The cuisine is American
HAPPY HOUSE SEAFOOD RESTAURANT,Brooklyn,5014-16,8TH AVE,11220,7188718893,Chinese,40.64097397,-74.00386629,1,1,0,34.56,The cuisine is Chinese
PARK AVENUE WINTER,Manhattan,360,PARK AVENUE SOUTH,10010,2129517111,American,40.74194777,-73.98508869,1,1,1,28.32,The cuisine is American
WHITE CASTLE,Bronx,3663,BOSTON ROAD,10466,7182311347,Hamburgers,40.88001579,-73.84178125,1,1,0,33.84,The cuisine is Hamburgers
ASIAN TOKYO JAPANESE CUISINE,Bronx,4685,MANHATTAN COLLEGE PARKWAY,10471,7185435751,Japanese,40.89087194,-73.89831936,0,1,0,29.35,The cuisine is Japanese
SUM FUNG CHINESE RESTAURANT,Queens,5401,NORTHERN BLVD,11377,9172573261,,40.7533207,-73.90660065,1,1,0,28.1,
STICKY RICE,Manhattan,85,ORCHARD STREET,10002,2122748208,Thai,40.71786576,-73.99037538,1,1,0,38.66,The cuisine is Thai
LION'S HEAD TAVERN,Manhattan,995,AMSTERDAM AVENUE,10025,2128661030,American,40.80217139,-73.96443248,1,1,0,11.12,The cuisine is American
TACOMBI,Queens,2710,43RD AVE,11101,3473933103,,40.74807665,-73.94159078,0,0,0,47.58,
HONG KONG CAFE CHINESE RESTAURANT,Brooklyn,357,FRANKLIN AVENUE,11238,7187833838,Chinese,40.68716602,-73.95686787,1,1,0,27.07,The cuisine is Chinese
PEET'S COFFEE,Manhattan,853,BROADWAY,10003,6467594933,Coffee/Tea,40.73463906,-73.99080956,1,1,1,21.39,The cuisine is Coffee/Tea
AGNANTI RESTAURANT,Queens,1906,DITMARS BOULEVARD,11105,7185454554,Greek,40.78110345,-73.91777329,1,1,0,25.15,The cuisine is Greek
UNION SQUARE CAFE/ DAILY PROVISIONS,Manhattan,101,EAST   19 STREET,10003,2122434020,American,40.73767177,-73.98802698,0,1,1,39.62,The cuisine is American
PLANTSHED COFFEE BAR,Manhattan,723,AMSTERDAM AVENUE,10025,2126624400,Coffee/Tea,40.79356563,-73.97070674,0,1,0,44.05,The cuisine is Coffee/Tea
THE GREAT AMERICAN HEALTH BAR,Manhattan,35,WEST   57 STREET,10019,2123555177,Jewish/Kosher,40.76350066,-73.9752324,0,0,0,47.66,The cuisine is Jewish/Kosher
ORIGINAL PITA GRILL,Manhattan,441,3 AVENUE,10016,2126833008,Mediterranean,40.74352792,-73.97970758,0,0,1,29.76,The cuisine is Mediterranean
120 BAY CAFE,Staten Island,120,BAY STREET,10301,7182737770,American,40.63915671,-74.07564831,0,1,0,47.67,The cuisine is American
BAKE CULTURE,Manhattan,48,BOWERY,10013,6468582898,Bakery Products/Desserts,40.71572244,-73.99639629,0,1,0,10.41,The cuisine is Bakery Products/Desserts
DOMINO'S,Bronx,2025,WESTCHESTER AVENUE,10462,7185188770,Pizza,40.83366585,-73.85674074,0,0,1,18.9,The cuisine is Pizza
Wanyoo Cyber Cafe,Queens,13528,40TH RD,11354,9294029178,Coffee/Tea,40.75884874,-73.83011497,1,1,1,26.22,The cuisine is Coffee/Tea
TONY'S PIZZA II,Brooklyn,1107,RUTLAND ROAD,11212,7189538163,Pizza,40.66473183,-73.92321958,0,1,0,19.75,The cuisine is Pizza
DYKER PARK BAGELS,Brooklyn,713,86 STREET,11228,7188366336,Sandwiches,40.61867339,-74.02154745,1,1,1,37.94,The cuisine is Sandwiches
BENNY'S KOSHER PIZZA,Queens,18130,UNION TPKE,11365,7189691929,Jewish/Kosher,40.72745251,-73.78647407,1,1,0,39.06,The cuisine is Jewish/Kosher
EL NUEVO POLANCO RESTAURANT,Queens,3313,108TH ST,11368,3477305511,Spanish,40.75746568,-73.86092273,0,1,0,21.88,The cuisine is Spanish
REGGIANOS BRICK OVEN PIZZA CAFE,Staten Island,7339,AMBOY ROAD,10307,3477260976,Pizza,40.51091734,-74.24177419,0,1,1,17.27,The cuisine is Pizza
HAN DYNASTY,Manhattan,215,WEST   85 STREET,10024,2128589060,Chinese,40.78727043,-73.97614438,0,0,0,28.79,The cuisine is Chinese
A & A NUTRITION,Queens,13807,QUEENS BLVD,11435,9175269696,"Juice, Smoothies, Fruit Salads",40.7086125,-73.81841275,0,1,1,31.87,"The cuisine is Juice, Smoothies, Fruit Salads"
BARKING DOG,Manhattan,1678,3 AVENUE,10128,2128311800,American,40.78398214,-73.95022562,0,1,0,16.18,The cuisine is American
KLASSIQUE,Bronx,3813,BOSTON ROAD,10466,7186543222,Caribbean,40.88146279,-73.83822292,0,0,0,42.48,The cuisine is Caribbean
ARTHUR'S TAVERN,Manhattan,57,GROVE STREET,10014,2126756879,American,40.73310231,-74.00339898,0,1,1,26.37,The cuisine is American
PRIMA PIZZA,Bronx,977,EAST  233 STREET,10466,3473266165,Pizza,40.89090349,-73.84949532,0,0,0,12.68,The cuisine is Pizza
THE ATHENIAN NYC,Manhattan,224,EAST   10 STREET,10003,6462246988,Greek,40.72917642,-73.98543433,1,1,1,12.09,The cuisine is Greek
MEXICANA DELI GROCERY,Bronx,339,EAST  204 STREET,10467,7187985820,Mexican,40.87221532,-73.87783534,0,1,0,27.88,The cuisine is Mexican
